local_name,geo_lat,geo_lng,country,province,gmt,full_text
feyzabad,37.12976076,70.57924719,Afghanistan,Badakhshan,4.5,feyzabad - Badakhshan - Afghanistan
qal eh-ye now,34.98300013,63.13329964,Afghanistan,Badghis,4.5,qal eh-ye now - Badghis - Afghanistan
pol-e khomri,35.95107302,68.70111894,Afghanistan,Baghlan,4.5,pol-e khomri - Baghlan - Afghanistan
baghlan,36.13933026,68.69925858,Afghanistan,Baghlan,4.5,baghlan - Baghlan - Afghanistan
balkh,36.75011985,66.89973018,Afghanistan,Balkh,4.5,balkh - Balkh - Afghanistan
mazar-e sharif,36.69999371,67.10002803,Afghanistan,Balkh,4.5,mazar-e sharif - Balkh - Afghanistan
bamian,34.82106447,67.52103593,Afghanistan,Bamyan,4.5,bamian - Bamyan - Afghanistan
farah,32.39172955,62.09681921,Afghanistan,Farah,4.5,farah - Farah - Afghanistan
meymaneh,35.93022158,64.77009273,Afghanistan,Faryab,4.5,meymaneh - Faryab - Afghanistan
andkhvoy,36.93165916,65.10149369,Afghanistan,Faryab,4.5,andkhvoy - Faryab - Afghanistan
ghazni,33.56331179,68.41782873,Afghanistan,Ghazni,4.5,ghazni - Ghazni - Afghanistan
chaghcharan,34.5167011,65.25000063,Afghanistan,Ghor,4.5,chaghcharan - Ghor - Afghanistan
lashkar gah,31.58299802,64.35999955,Afghanistan,Hilmand,4.5,lashkar gah - Hilmand - Afghanistan
karokh,34.48676963,62.59177608,Afghanistan,Hirat,4.5,karokh - Hirat - Afghanistan
herat,34.33000917,62.16999304,Afghanistan,Hirat,4.5,herat - Hirat - Afghanistan
sheberghan,36.65798077,65.73830237,Afghanistan,Jawzjan,4.5,sheberghan - Jawzjan - Afghanistan
kabul,34.51669029,69.18326005,Afghanistan,Kabul,4.5,kabul - Kabul - Afghanistan
kandahar,31.61002016,65.69494584,Afghanistan,Kandahar,4.5,kandahar - Kandahar - Afghanistan
mahmud-e eraqi,35.01669608,69.33330065,Afghanistan,Kapisa,4.5,mahmud-e eraqi - Kapisa - Afghanistan
asadabad,34.86600004,71.15000459,Afghanistan,Kunar,4.5,asadabad - Kunar - Afghanistan
kondoz,36.72795066,68.87252966,Afghanistan,Kunduz,4.5,kondoz - Kunduz - Afghanistan
mehtar lam,34.65000001,70.16670052,Afghanistan,Laghman,4.5,mehtar lam - Laghman - Afghanistan
baraki barak,33.9667021,68.96670354,Afghanistan,Logar,4.5,baraki barak - Logar - Afghanistan
jalalabad,34.44152692,70.43610347,Afghanistan,Nangarhar,4.5,jalalabad - Nangarhar - Afghanistan
zaranj,31.11200108,61.88699752,Afghanistan,Nimroz,4.5,zaranj - Nimroz - Afghanistan
zareh sharan,32.85000016,68.41670453,Afghanistan,Paktika,4.5,zareh sharan - Paktika - Afghanistan
gardiz,33.60005373,69.21462764,Afghanistan,Paktya,4.5,gardiz - Paktya - Afghanistan
charikar,35.01826174,69.16791215,Afghanistan,Parwan,4.5,charikar - Parwan - Afghanistan
aybak,36.26100015,68.04000051,Afghanistan,Samangan,4.5,aybak - Samangan - Afghanistan
taloqan,36.72999904,69.54000364,Afghanistan,Takhar,4.5,taloqan - Takhar - Afghanistan
tarin kowt,32.63329815,65.86669865,Afghanistan,Uruzgan,4.5,tarin kowt - Uruzgan - Afghanistan
mayda shahr,34.45000209,68.79999663,Afghanistan,Wardak,4.5,mayda shahr - Wardak - Afghanistan
qalat,32.11226341,66.8867594,Afghanistan,Zabul,4.5,qalat - Zabul - Afghanistan
mariehamn,60.09699618,19.94900447,Aland,Finstr?m,0,mariehamn - Finstr?m - Aland
berat,40.70999705,19.97199958,Albania,Berat,1,berat - Berat - Albania
corovode,40.51670403,20.23329663,Albania,Berat,1,corovode - Berat - Albania
peshkopi,41.6833021,20.43330349,Albania,Dib?r,1,peshkopi - Dib?r - Albania
burrel,41.62599908,20.01600053,Albania,Dib?r,1,burrel - Dib?r - Albania
kruje,41.51899817,19.79700359,Albania,Durr?s,1,kruje - Durr?s - Albania
durres,41.3177997,19.44820797,Albania,Durr?s,1,durres - Durr?s - Albania
tirana,41.32754071,19.81888301,Albania,Durr?s,1,tirana - Durr?s - Albania
gramsh,40.86669601,20.19999652,Albania,Elbasan,1,gramsh - Elbasan - Albania
librazhd,41.20000211,20.3667036,Albania,Elbasan,1,librazhd - Elbasan - Albania
elbasan,41.12150677,20.08382808,Albania,Elbasan,1,elbasan - Elbasan - Albania
fier,40.73000402,19.5730026,Albania,Fier,1,fier - Fier - Albania
lushnje,40.94000113,19.71600348,Albania,Fier,1,lushnje - Fier - Albania
tepelene,40.2832981,20.03329854,Albania,Gjirokast?r,1,tepelene - Gjirokast?r - Albania
permet,40.23399605,20.35199756,Albania,Gjirokast?r,1,permet - Gjirokast?r - Albania
gjirokaster,40.07899809,20.14900256,Albania,Gjirokast?r,1,gjirokaster - Gjirokast?r - Albania
erseke,40.33330213,20.68329651,Albania,Kor?,1,erseke - Kor? - Albania
pogradec,40.89999612,20.66400062,Albania,Kor?,1,pogradec - Kor? - Albania
korce,40.61667601,20.76666353,Albania,Kor?,1,korce - Kor? - Albania
bajram curri,42.33330007,20.08330257,Albania,Kuk?s,1,bajram curri - Kuk?s - Albania
kukes,42.08300107,20.43399653,Albania,Kuk?s,1,kukes - Kuk?s - Albania
lezhe,41.78799914,19.65400254,Albania,"Lezh?
Rreshen",1,"lezhe - Lezh?
Rreshen - Albania"
shkoder,42.06845156,19.51884965,Albania,Shkod?r,1,shkoder - Shkod?r - Albania
sarande,39.87700212,19.99999859,Albania,"Vlor?
Vlore",1,"sarande - Vlor?
Vlore - Albania"
adrar,27.86999005,-0.28996708,Algeria,Adrar,1,adrar - Adrar - Algeria
reggane,26.69998395,0.166645873,Algeria,Adrar,1,reggane - Adrar - Algeria
algiers,36.7630648,3.05055253,Algeria,Alger,1,algiers - Alger - Algeria
annaba,36.92000612,7.759980834,Algeria,Annaba,1,annaba - Annaba - Algeria
batna,35.56995933,6.170000365,Algeria,Batna,1,batna - Batna - Algeria
beni ounif,32.04926984,-1.25138126,Algeria,B?char,1,beni ounif - B?char - Algeria
abadla,31.01708478,-2.73330631,Algeria,B?char,1,abadla - B?char - Algeria
bechar,31.61110537,-2.2300037,Algeria,B?char,1,bechar - B?char - Algeria
bejaia,36.76037762,5.070015827,Algeria,B?ja?a,1,bejaia - B?ja?a - Algeria
el oued,33.37040367,6.859984089,Algeria,Biskra,1,el oued - Biskra - Algeria
biskra,34.85997683,5.73002722,Algeria,Biskra,1,biskra - Biskra - Algeria
blida,36.4203467,2.829997517,Algeria,Blida,1,blida - Blida - Algeria
bordj bou arreridj,36.05900401,4.629996466,Algeria,Bordj Bou Arr?ridj,1,bordj bou arreridj - Bordj Bou Arr?ridj - Algeria
bouira,36.38047833,3.900009724,Algeria,Bouira,1,bouira - Bouira - Algeria
chlef,36.17041363,1.319960489,Algeria,Chlef,1,chlef - Chlef - Algeria
constantine,36.35998863,6.599948281,Algeria,Constantine,1,constantine - Constantine - Algeria
djelfa,34.67998781,3.250023558,Algeria,Djelfa,1,djelfa - Djelfa - Algeria
el bayadh,33.6903583,1.009953571,Algeria,El Bayadh,1,el bayadh - El Bayadh - Algeria
el golea,30.56662132,2.883327595,Algeria,Gharda?a,1,el golea - Gharda?a - Algeria
ghardaia,32.48999229,3.669997923,Algeria,Gharda?a,1,ghardaia - Gharda?a - Algeria
guelma,36.46600213,7.427997486,Algeria,Guelma,1,guelma - Guelma - Algeria
djanet,24.5529057,9.482252969,Algeria,Illizi,1,djanet - Illizi - Algeria
i-n-amenas,28.0503408,9.550000772,Algeria,Illizi,1,i-n-amenas - Illizi - Algeria
illizi,26.48335634,8.466604369,Algeria,Illizi,1,illizi - Illizi - Algeria
jijel,36.82199703,5.76600356,Algeria,Jijel,1,jijel - Jijel - Algeria
laghouat,33.80998924,2.880020303,Algeria,Laghouat,1,laghouat - Laghouat - Algeria
mascara,35.40040895,0.14003251,Algeria,Mascara,1,mascara - Mascara - Algeria
medea,36.27040753,2.770001179,Algeria,M?d,1,medea - M?d - Algeria
mostaganem,35.940376,0.089983885,Algeria,Mostaganem,1,mostaganem - Mostaganem - Algeria
m'sila,35.7000031,4.545000584,Algeria,M'Sila,1,m'sila - M'Sila - Algeria
sefra,32.76041506,-0.57994938,Algeria,Na?ma,1,sefra - Na?ma - Algeria
oran,35.71000246,-0.61997278,Algeria,Oran,1,oran - Oran - Algeria
hassi messaoud,31.70234011,6.054451862,Algeria,Ouargla,1,hassi messaoud - Ouargla - Algeria
touggourt,33.0999809,6.05998124,Algeria,Ouargla,1,touggourt - Ouargla - Algeria
ouargla,31.96997235,5.340025186,Algeria,Ouargla,1,ouargla - Ouargla - Algeria
oum el bouaghi,35.84999715,7.149996522,Algeria,Oum el Bouaghi,1,oum el bouaghi - Oum el Bouaghi - Algeria
setif,36.18002545,5.399969847,Algeria,S?tif,1,setif - S?tif - Algeria
sidi bel abbes,35.19034426,-0.63997155,Algeria,Sidi Bel Abb?s,1,sidi bel abbes - Sidi Bel Abb?s - Algeria
skikda,36.88042198,6.899981647,Algeria,Skikda,1,skikda - Skikda - Algeria
souk ahras,36.29038047,7.949995075,Algeria,Souk Ahras,1,souk ahras - Souk Ahras - Algeria
in amguel,23.69394004,5.164738727,Algeria,Tamanghasset,1,in amguel - Tamanghasset - Algeria
i-n-salah,27.21664492,2.466608845,Algeria,Tamanghasset,1,i-n-salah - Tamanghasset - Algeria
tamanrasset,22.78500327,5.522804727,Algeria,Tamanghasset,1,tamanrasset - Tamanghasset - Algeria
tebessa,35.41043418,8.120010537,Algeria,T?bessa,1,tebessa - T?bessa - Algeria
tiarat,35.38043601,1.319960489,Algeria,Tiaret,1,tiarat - Tiaret - Algeria
tindouf,27.67418805,-8.14778202,Algeria,Tindouf,1,tindouf - Tindouf - Algeria
tizi-ouzou,36.80000111,4.033332556,Algeria,Tizi Ouzou,1,tizi-ouzou - Tizi Ouzou - Algeria
tlimcen,34.89041424,-1.32000757,Algeria,Tlemcen,1,tlimcen - Tlemcen - Algeria
pago pago,-14.2766105,-170.706645,American Samoa,,-11,pago pago -  - American Samoa
andorra,42.50000144,1.516485961,Andorra,,0,andorra -  - Andorra
caxito,-8.57954221,13.65998246,Angola,Bengo,1,caxito - Bengo - Angola
ambriz,-7.85498696,13.12502803,Angola,Bengo,1,ambriz - Bengo - Angola
cubal,-13.03958,14.23999874,Angola,Benguela,1,cubal - Benguela - Angola
lobito,-12.3700085,13.54123002,Angola,Benguela,1,lobito - Benguela - Angola
benguela,-12.5782645,13.40723303,Angola,Benguela,1,benguela - Benguela - Angola
calucinga,-11.3195816,16.19998246,Angola,"Bi?
Camacupa",1,"calucinga - Bi?
Camacupa - Angola"
mucusso,-18.0195344,21.42999914,Angola,Cuando Cubango,1,mucusso - Cuando Cubango - Angola
mavinga,-15.7895414,20.36003861,Angola,Cuando Cubango,1,mavinga - Cuando Cubango - Angola
cuito caunavale,-15.1596056,19.16998205,Angola,Cuando Cubango,1,cuito caunavale - Cuando Cubango - Angola
luiana,-17.3695483,22.99998083,Angola,Cuando Cubango,1,luiana - Cuando Cubango - Angola
menongue,-14.6666125,17.69999426,Angola,Cuando Cubango,1,menongue - Cuando Cubango - Angola
camabatela,-8.18959185,15.37000728,Angola,Cuanza Norte,1,camabatela - Cuanza Norte - Angola
ndalatando,-9.29954994,14.90998368,Angola,Cuanza Norte,1,ndalatando - Cuanza Norte - Angola
quibala,-10.7295918,14.97995357,Angola,Cuanza Sul,1,quibala - Cuanza Sul - Angola
calulo,-9.99961057,14.90001013,Angola,Cuanza Sul,1,calulo - Cuanza Sul - Angola
waku kungo,-11.3595275,15.1199967,Angola,Cuanza Sul,1,waku kungo - Cuanza Sul - Angola
sumbe,-11.2100276,13.8499967,Angola,Cuanza Sul,1,sumbe - Cuanza Sul - Angola
ondjiva,-17.0696183,15.73003699,Angola,Cunene,1,ondjiva - Cunene - Angola
chitado,-17.3196288,13.92001827,Angola,Cunene,1,chitado - Cunene - Angola
xangongo,-16.740026,14.96998002,Angola,Cunene,1,xangongo - Cunene - Angola
huambo,-12.7499853,15.76000932,Angola,Huambo,1,huambo - Huambo - Angola
chibemba,-15.7495955,14.0800085,Angola,Hu?la,1,chibemba - Hu?la - Angola
chibia,-15.1896297,13.69000647,Angola,Hu?la,1,chibia - Hu?la - Angola
quipungo,-14.8295483,14.55000565,Angola,Hu?la,1,quipungo - Hu?la - Angola
lubango,-14.9100085,13.49001868,Angola,Hu?la,1,lubango - Hu?la - Angola
luanda,-8.83828611,13.23442704,Angola,Luanda,1,luanda - Luanda - Angola
lucapa,-8.41960365,20.74001542,Angola,Lunda Norte,1,lucapa - Lunda Norte - Angola
capenda-camulemba,-9.4195943,18.43002722,Angola,Lunda Norte,1,capenda-camulemba - Lunda Norte - Angola
dundo,-7.38002887,20.82998409,Angola,Lunda Norte,1,dundo - Lunda Norte - Angola
saurimo,-9.65957965,20.39001094,Angola,Lunda Sul,1,saurimo - Lunda Sul - Angola
muconda,-10.5996256,21.31998002,Angola,Lunda Sul,1,muconda - Lunda Sul - Angola
cacolo,-10.1496272,19.2600024,Angola,Lunda Sul,1,cacolo - Lunda Sul - Angola
malanje,-9.54000038,16.34002559,Angola,Malanje,1,malanje - Malanje - Angola
luau,-10.7095414,22.23000199,Angola,Moxico,1,luau - Moxico - Angola
cangamba,-13.6995914,19.86001745,Angola,Moxico,1,cangamba - Moxico - Angola
lumbala nguimbo,-14.0996187,21.44002437,Angola,Moxico,1,lumbala nguimbo - Moxico - Angola
cazombo,-11.8895727,22.90003861,Angola,Moxico,1,cazombo - Moxico - Angola
luena,-11.7900439,19.90001501,Angola,Moxico,1,luena - Moxico - Angola
t?mbua,-15.8000317,11.85998897,Angola,Namibe,1,t?mbua - Namibe - Angola
namibe,-15.1900431,12.16002234,Angola,Namibe,1,namibe - Namibe - Angola
songo,-7.34959145,14.84998734,Angola,U?ge,1,songo - U?ge - Angola
uige,-7.62001422,15.04997514,Angola,U?ge,1,uige - U?ge - Angola
mbanza-congo,-6.26960569,14.23999874,Angola,Zaire,1,mbanza-congo - Zaire - Angola
nzeto,-7.22959877,12.86003129,Angola,Zaire,1,nzeto - Zaire - Angola
soyo,-6.12961423,12.36998368,Angola,Zaire,1,soyo - Zaire - Angola
artigas base,-62.1738866,-58.863864,Antarctica,,0,artigas base -  - Antarctica
capitan arturo prat station,-62.4995068,-59.6833185,Antarctica,,0,capitan arturo prat station -  - Antarctica
marambio station,-64.2328893,-56.6500153,Antarctica,,0,marambio station -  - Antarctica
zucchelli station,-74.6191925,164.2190271,Antarctica,,0,zucchelli station -  - Antarctica
rothera station,-67.5647756,-68.1235405,Antarctica,,0,rothera station -  - Antarctica
palmer station,-64.7624133,-64.0468756,Antarctica,,0,palmer station -  - Antarctica
base presidente montalva,-62.1827435,-58.9076523,Antarctica,,0,base presidente montalva -  - Antarctica
carlini station,-62.2241438,-58.6504759,Antarctica,,0,carlini station -  - Antarctica
king sejong station,-62.2248534,-58.7715987,Antarctica,,0,king sejong station -  - Antarctica
great wall station,-62.2163199,-58.9666956,Antarctica,,0,great wall station -  - Antarctica
escudero base,-62.1949625,-58.9526658,Antarctica,,0,escudero base -  - Antarctica
elephant island,-61.999589,-57.9999845,Antarctica,,0,elephant island -  - Antarctica
scott base,-77.8469381,166.7491023,Antarctica,,0,scott base -  - Antarctica
mcmurdo station,-77.7322823,166.8694157,Antarctica,,0,mcmurdo station -  - Antarctica
zhongshan station,-69.4340629,76.33929808,Antarctica,,0,zhongshan station -  - Antarctica
vostok,-78.4662841,106.8000337,Antarctica,,0,vostok -  - Antarctica
peter i island,-68.832867,90.49999508,Antarctica,,0,peter i island -  - Antarctica
mirny station,-66.5755295,93.00628846,Antarctica,,0,mirny station -  - Antarctica
mawson station,-67.6145203,62.87500073,Antarctica,,0,mawson station -  - Antarctica
davis station,-68.7776743,78.14073509,Antarctica,,0,davis station -  - Antarctica
concordia research station,-74.6663093,124.1670357,Antarctica,,0,concordia research station -  - Antarctica
casey station,-66.2860861,110.536214,Antarctica,,0,casey station -  - Antarctica
amundsen?scott south pole station,-89.9828938,139.2669926,Antarctica,,0,amundsen?scott south pole station -  - Antarctica
wasa station,-73.0496122,-13.416711,Antarctica,,0,wasa station -  - Antarctica
troll station,-72.0162902,2.533323119,Antarctica,,0,troll station -  - Antarctica
svea station,-74.5829036,-11.2166903,Antarctica,,0,svea station -  - Antarctica
novolazarevskaya station,-71.3012347,-11.8502129,Antarctica,,0,novolazarevskaya station -  - Antarctica
neumayer station iii,-70.8903966,-7.838438,Antarctica,,0,neumayer station iii -  - Antarctica
maitri station,-70.7821796,11.7304584,Antarctica,,0,maitri station -  - Antarctica
halley station,-76.0922631,-26.4741567,Antarctica,,0,halley station -  - Antarctica
belgrano station,-77.8663207,-34.6166831,Antarctica,,0,belgrano station -  - Antarctica
camp sobral,-81.1790847,-40.5015315,Antarctica,,0,camp sobral -  - Antarctica
aboa station,-75.0495934,-13.416711,Antarctica,,0,aboa station -  - Antarctica
san mart?n station,-68.1163216,-67.0999976,Antarctica,,0,san mart?n station -  - Antarctica
gen. o'higgins station,-63.3284182,-57.8895935,Antarctica,,0,gen. o'higgins station -  - Antarctica
esperanza station,-63.3753286,-57.0259015,Antarctica,,0,esperanza station -  - Antarctica
orcadas station,-60.7328963,-44.7333008,Antarctica,,0,orcadas station -  - Antarctica
signy research station,-60.6313081,-45.6007033,Antarctica,,0,signy research station -  - Antarctica
dumont d'urville station,-66.7750509,139.9636836,Antarctica,,0,dumont d'urville station -  - Antarctica
showa station,-69.0303924,39.7460831,Antarctica,,0,showa station -  - Antarctica
saint john's,17.11803652,-61.8500338,Antigua and Barbuda,,-4,saint john's -  - Antigua and Barbuda
chumbicha,-28.8666243,-66.2333063,Argentina,Catamarca,-3,chumbicha - Catamarca - Argentina
tinogasta,-28.0666214,-67.5665841,Argentina,Catamarca,-3,tinogasta - Catamarca - Argentina
belen,-27.6495926,-67.0332833,Argentina,Catamarca,-3,belen - Catamarca - Argentina
catamarca,-28.4700077,-65.7800006,Argentina,Catamarca,-3,catamarca - Catamarca - Argentina
presidencia roque saenz pena,-26.7900069,-60.4500159,Argentina,Chaco,-3,presidencia roque saenz pena - Chaco - Argentina
pampa del infierno,-26.5165868,-61.1665871,Argentina,Chaco,-3,pampa del infierno - Chaco - Argentina
villa angela,-27.5832918,-60.7166663,Argentina,Chaco,-3,villa angela - Chaco - Argentina
juan jose castelli,-25.9495414,-60.6166465,Argentina,Chaco,-3,juan jose castelli - Chaco - Argentina
charata,-27.2162857,-61.1999959,Argentina,Chaco,-3,charata - Chaco - Argentina
resistencia,-27.4599918,-58.9900275,Argentina,Chaco,-3,resistencia - Chaco - Argentina
paso rio mayo,-45.6833756,-70.2665743,Argentina,Chubut,-3,paso rio mayo - Chubut - Argentina
alto rio sanguer,-45.0332861,-70.8332839,Argentina,Chubut,-3,alto rio sanguer - Chubut - Argentina
el maiten,-42.0500056,-71.1666227,Argentina,Chubut,-3,el maiten - Chubut - Argentina
puerto madryn,-42.7700134,-65.0400199,Argentina,Chubut,-3,puerto madryn - Chubut - Argentina
trelew,-43.2500357,-65.3299506,Argentina,Chubut,-3,trelew - Chubut - Argentina
las plumas,-43.4162788,-67.2499884,Argentina,Chubut,-3,las plumas - Chubut - Argentina
gastre,-42.282963,-69.233304,Argentina,Chubut,-3,gastre - Chubut - Argentina
telsen,-42.3995967,-66.9500067,Argentina,Chubut,-3,telsen - Chubut - Argentina
esquel,-42.9000313,-71.3166136,Argentina,Chubut,-3,esquel - Chubut - Argentina
sarmiento,-45.6000215,-69.0833132,Argentina,Chubut,-3,sarmiento - Chubut - Argentina
rawson,-43.3000069,-65.0999904,Argentina,Chubut,-3,rawson - Chubut - Argentina
comodoro rivadavia,-45.8700309,-67.499999,Argentina,Chubut,-3,comodoro rivadavia - Chubut - Argentina
punta alta,-38.8799666,-62.0799681,Argentina,Ciudad de Buenos Aires,-3,punta alta - Ciudad de Buenos Aires - Argentina
san nicolas,-33.3300211,-60.2400028,Argentina,Ciudad de Buenos Aires,-3,san nicolas - Ciudad de Buenos Aires - Argentina
campana,-34.1599963,-58.9599776,Argentina,Ciudad de Buenos Aires,-3,campana - Ciudad de Buenos Aires - Argentina
chacabuco,-34.6500439,-60.4899876,Argentina,Ciudad de Buenos Aires,-3,chacabuco - Ciudad de Buenos Aires - Argentina
chivilcoy,-34.8999511,-60.0399892,Argentina,Ciudad de Buenos Aires,-3,chivilcoy - Ciudad de Buenos Aires - Argentina
veinticinco de mayo,-35.4299963,-60.1799807,Argentina,Ciudad de Buenos Aires,-3,veinticinco de mayo - Ciudad de Buenos Aires - Argentina
nueve de julio,-35.4459643,-60.889989,Argentina,Ciudad de Buenos Aires,-3,nueve de julio - Ciudad de Buenos Aires - Argentina
dolores,-36.3300447,-57.6899776,Argentina,Ciudad de Buenos Aires,-3,dolores - Ciudad de Buenos Aires - Argentina
pedro luro,-39.4833406,-62.6833162,Argentina,Ciudad de Buenos Aires,-3,pedro luro - Ciudad de Buenos Aires - Argentina
tres arroyos,-38.3699719,-60.2699493,Argentina,Ciudad de Buenos Aires,-3,tres arroyos - Ciudad de Buenos Aires - Argentina
coronel suarez,-37.4666161,-61.9166189,Argentina,Ciudad de Buenos Aires,-3,coronel suarez - Ciudad de Buenos Aires - Argentina
balcarce,-37.8333121,-58.2499951,Argentina,Ciudad de Buenos Aires,-3,balcarce - Ciudad de Buenos Aires - Argentina
zarate,-34.0895613,-59.0400244,Argentina,Ciudad de Buenos Aires,-3,zarate - Ciudad de Buenos Aires - Argentina
carhue,-37.1828609,-62.7333132,Argentina,Ciudad de Buenos Aires,-3,carhue - Ciudad de Buenos Aires - Argentina
darregueira,-37.6995735,-63.1665942,Argentina,Ciudad de Buenos Aires,-3,darregueira - Ciudad de Buenos Aires - Argentina
juarez,-37.6655187,-59.8000297,Argentina,Ciudad de Buenos Aires,-3,juarez - Ciudad de Buenos Aires - Argentina
mar de ajo,-36.7162227,-56.6766028,Argentina,Ciudad de Buenos Aires,-3,mar de ajo - Ciudad de Buenos Aires - Argentina
lobos,-35.184895,-59.0946722,Argentina,Ciudad de Buenos Aires,-3,lobos - Ciudad de Buenos Aires - Argentina
chascomus,-35.5662153,-58.0166243,Argentina,Ciudad de Buenos Aires,-3,chascomus - Ciudad de Buenos Aires - Argentina
la plata,-34.9096146,-57.9599611,Argentina,Ciudad de Buenos Aires,-3,la plata - Ciudad de Buenos Aires - Argentina
pergamino,-33.8995987,-60.5699827,Argentina,Ciudad de Buenos Aires,-3,pergamino - Ciudad de Buenos Aires - Argentina
lujan,-34.5796089,-59.1099943,Argentina,Ciudad de Buenos Aires,-3,lujan - Ciudad de Buenos Aires - Argentina
azul,-36.7796297,-59.8699996,Argentina,Ciudad de Buenos Aires,-3,azul - Ciudad de Buenos Aires - Argentina
villalonga,-39.8828511,-62.5833223,Argentina,Ciudad de Buenos Aires,-3,villalonga - Ciudad de Buenos Aires - Argentina
olavarria,-36.9000357,-60.3299974,Argentina,Ciudad de Buenos Aires,-3,olavarria - Ciudad de Buenos Aires - Argentina
tandil,-37.3200101,-59.1500435,Argentina,Ciudad de Buenos Aires,-3,tandil - Ciudad de Buenos Aires - Argentina
viedma,-40.7999527,-63.0000153,Argentina,Ciudad de Buenos Aires,-3,viedma - Ciudad de Buenos Aires - Argentina
necochea,-38.5599861,-58.7499904,Argentina,Ciudad de Buenos Aires,-3,necochea - Ciudad de Buenos Aires - Argentina
bahia blanca,-38.7400268,-62.2650214,Argentina,Ciudad de Buenos Aires,-3,bahia blanca - Ciudad de Buenos Aires - Argentina
mar del plata,-38.0000203,-57.5799843,Argentina,Ciudad de Buenos Aires,-3,mar del plata - Ciudad de Buenos Aires - Argentina
buenos aires,-34.6025016,-58.3975313,Argentina,Ciudad de Buenos Aires,-3,buenos aires - Ciudad de Buenos Aires - Argentina
alta gracia,-31.6599938,-64.4299797,Argentina,C?rdoba,-3,alta gracia - C?rdoba - Argentina
villa maria,-32.4100256,-63.2600252,Argentina,C?rdoba,-3,villa maria - C?rdoba - Argentina
bell ville,-32.6000398,-62.6799573,Argentina,C?rdoba,-3,bell ville - C?rdoba - Argentina
villa rumipal,-32.1833211,-64.4832839,Argentina,C?rdoba,-3,villa rumipal - C?rdoba - Argentina
villa carlos paz,-31.4200085,-64.5000012,Argentina,C?rdoba,-3,villa carlos paz - C?rdoba - Argentina
rio tercero,-32.1796004,-64.1200244,Argentina,C?rdoba,-3,rio tercero - C?rdoba - Argentina
rio cuarto,-33.1300333,-64.3499845,Argentina,C?rdoba,-3,rio cuarto - C?rdoba - Argentina
c?rdoba,-31.399958,-64.1822945,Argentina,C?rdoba,-3,c?rdoba - C?rdoba - Argentina
corrientes,-27.4899641,-58.8099868,Argentina,Corrientes,-3,corrientes - Corrientes - Argentina
goya,-29.1399926,-59.2699845,Argentina,Corrientes,-3,goya - Corrientes - Argentina
concepcion del uruguay,-32.4799955,-58.2399957,Argentina,Entre R?os,-3,concepcion del uruguay - Entre R?os - Argentina
gualeguay,-33.1500321,-59.3400061,Argentina,Entre R?os,-3,gualeguay - Entre R?os - Argentina
parana,-31.7333227,-60.5333441,Argentina,Entre R?os,-3,parana - Entre R?os - Argentina
gualeguaychu,-33.0200142,-58.5200045,Argentina,Entre R?os,-3,gualeguaychu - Entre R?os - Argentina
ingeniero guillermo n. juarez,-23.9000024,-61.8499821,Argentina,Formosa,-3,ingeniero guillermo n. juarez - Formosa - Argentina
comandante fontana,-25.3332999,-59.6833185,Argentina,Formosa,-3,comandante fontana - Formosa - Argentina
doctor pedro p. pena,-22.4799857,-62.2999805,Argentina,Formosa,-3,doctor pedro p. pena - Formosa - Argentina
las lomitas,-24.6995918,-60.6000067,Argentina,Formosa,-3,las lomitas - Formosa - Argentina
abra pampa,-22.7166638,-65.6999797,Argentina,Jujuy,-3,abra pampa - Jujuy - Argentina
humahuaca,-23.1999934,-65.3499493,Argentina,Jujuy,-3,humahuaca - Jujuy - Argentina
susques,-23.4166727,-66.4833169,Argentina,Jujuy,-3,susques - Jujuy - Argentina
rinconada,-22.4329085,-66.166592,Argentina,Jujuy,-3,rinconada - Jujuy - Argentina
libertador general san martin,-23.8195422,-64.7899835,Argentina,Jujuy,-3,libertador general san martin - Jujuy - Argentina
san salvador de jujuy,-24.1833443,-65.3000299,Argentina,Jujuy,-3,san salvador de jujuy - Jujuy - Argentina
victorica,-36.2162532,-65.4500207,Argentina,La Pampa,-3,victorica - La Pampa - Argentina
general pico,-35.6595947,-63.7700199,Argentina,La Pampa,-3,general pico - La Pampa - Argentina
rio colorado,-38.9665763,-64.0832825,Argentina,La Pampa,-3,rio colorado - La Pampa - Argentina
chepes,-31.3499869,-66.5999506,Argentina,La Rioja,-3,chepes - La Rioja - Argentina
chilecito,-29.1655208,-67.499999,Argentina,La Rioja,-3,chilecito - La Rioja - Argentina
chamical,-30.3495829,-66.3166604,Argentina,La Rioja,-3,chamical - La Rioja - Argentina
la rioja,-29.4099503,-66.8499611,Argentina,La Rioja,-3,la rioja - La Rioja - Argentina
las heras,-32.825039,-68.8016766,Argentina,Mendoza,-3,las heras - Mendoza - Argentina
uspallata,-32.5931152,-69.3459845,Argentina,Mendoza,-3,uspallata - Mendoza - Argentina
malargue,-35.4661181,-69.5833085,Argentina,Mendoza,-3,malargue - Mendoza - Argentina
tunuyan,-33.5661824,-69.0166764,Argentina,Mendoza,-3,tunuyan - Mendoza - Argentina
mendoza,-32.88333,-68.8166111,Argentina,Mendoza,-3,mendoza - Mendoza - Argentina
posadas,-27.3578321,-55.8851073,Argentina,Misiones,-3,posadas - Misiones - Argentina
cutral co,-38.9400146,-69.240022,Argentina,Neuqu?n,-3,cutral co - Neuqu?n - Argentina
chos malal,-37.382952,-70.2665743,Argentina,Neuqu?n,-3,chos malal - Neuqu?n - Argentina
las lajas,-38.5162678,-70.366594,Argentina,Neuqu?n,-3,las lajas - Neuqu?n - Argentina
zapala,-38.900017,-70.066664,Argentina,Neuqu?n,-3,zapala - Neuqu?n - Argentina
neuquen,-38.9500398,-68.0599906,Argentina,Neuqu?n,-3,neuquen - Neuqu?n - Argentina
25 de mayo,-37.8000325,-67.6832953,Argentina,R?o Negro,-3,25 de mayo - R?o Negro - Argentina
general roca,-39.019958,-67.6099664,Argentina,R?o Negro,-3,general roca - R?o Negro - Argentina
comallo,-41.0333235,-70.2665743,Argentina,R?o Negro,-3,comallo - R?o Negro - Argentina
ingeniero jacobacci,-41.3000256,-69.5833085,Argentina,R?o Negro,-3,ingeniero jacobacci - R?o Negro - Argentina
general conesa,-40.1000471,-64.4332869,Argentina,R?o Negro,-3,general conesa - R?o Negro - Argentina
choele choel,-39.2666096,-65.683314,Argentina,R?o Negro,-3,choele choel - R?o Negro - Argentina
san antonio oeste,-40.7328767,-64.9332823,Argentina,R?o Negro,-3,san antonio oeste - R?o Negro - Argentina
sierra colorado,-40.58286,-67.7999807,Argentina,R?o Negro,-3,sierra colorado - R?o Negro - Argentina
san carlos de bariloche,-41.1499572,-71.2999996,Argentina,R?o Negro,-3,san carlos de bariloche - R?o Negro - Argentina
yacuiba,-22.030039,-63.6999984,Argentina,Salta,-3,yacuiba - Salta - Argentina
tartagal,-22.5500073,-63.8100175,Argentina,Salta,-3,tartagal - Salta - Argentina
joaquin v. gonzalez,-25.083341,-64.1833539,Argentina,Salta,-3,joaquin v. gonzalez - Salta - Argentina
general guemes,-24.6666223,-65.0499676,Argentina,Salta,-3,general guemes - Salta - Argentina
los blancos,-23.5996073,-62.6000397,Argentina,Salta,-3,los blancos - Salta - Argentina
cafayate,-26.0829182,-65.9666042,Argentina,Salta,-3,cafayate - Salta - Argentina
cerrillos,-24.8996313,-65.4833004,Argentina,Salta,-3,cerrillos - Salta - Argentina
san antonio de los cobres,-24.1829308,-66.3500175,Argentina,Salta,-3,san antonio de los cobres - Salta - Argentina
san ramon de la nueva oran,-23.1399971,-64.3200122,Argentina,Salta,-3,san ramon de la nueva oran - Salta - Argentina
salta,-24.7833593,-65.4166378,Argentina,Salta,-3,salta - Salta - Argentina
rodeo,-30.2155859,-69.1399506,Argentina,San Juan,-3,rodeo - San Juan - Argentina
mercedes,-33.6895857,-65.4699679,Argentina,San Luis,-3,mercedes - San Luis - Argentina
28 de noviembre,-51.6500398,-72.3000161,Argentina,Santa Cruz,-3,28 de noviembre - Santa Cruz - Argentina
gobernador gregores,-48.7665982,-70.250012,Argentina,Santa Cruz,-3,gobernador gregores - Santa Cruz - Argentina
comondante luis piedrabuena,-49.9745486,-68.9034727,Argentina,Santa Cruz,-3,comondante luis piedrabuena - Santa Cruz - Argentina
puerto san julian,-49.3000024,-67.7166524,Argentina,Santa Cruz,-3,puerto san julian - Santa Cruz - Argentina
perito moreno,-46.6000121,-70.9333553,Argentina,Santa Cruz,-3,perito moreno - Santa Cruz - Argentina
el calafate,-50.3333243,-72.3000161,Argentina,Santa Cruz,-3,el calafate - Santa Cruz - Argentina
puerto deseado,-47.7500195,-65.8999674,Argentina,Santa Cruz,-3,puerto deseado - Santa Cruz - Argentina
rio gallegos,-51.6332966,-69.2165867,Argentina,Santa Cruz,-3,rio gallegos - Santa Cruz - Argentina
villa constitucion,-33.2300272,-60.350022,Argentina,Santa Fe,-3,villa constitucion - Santa Fe - Argentina
rafaela,-31.2500447,-61.4999776,Argentina,Santa Fe,-3,rafaela - Santa Fe - Argentina
sunchales,-30.9329064,-61.5666144,Argentina,Santa Fe,-3,sunchales - Santa Fe - Argentina
san justo,-30.7828897,-60.5832894,Argentina,Santa Fe,-3,san justo - Santa Fe - Argentina
vera,-29.4661743,-60.2165934,Argentina,Santa Fe,-3,vera - Santa Fe - Argentina
reconquista,-29.1395275,-59.650013,Argentina,Santa Fe,-3,reconquista - Santa Fe - Argentina
venado tuerto,-33.749582,-61.9700006,Argentina,Santa Fe,-3,venado tuerto - Santa Fe - Argentina
anatuya,-28.4661319,-62.8333071,Argentina,Santiago del Estero,-3,anatuya - Santiago del Estero - Argentina
frias,-28.6495833,-65.1499874,Argentina,Santiago del Estero,-3,frias - Santiago del Estero - Argentina
monte quemado,-25.799628,-62.8665867,Argentina,Santiago del Estero,-3,monte quemado - Santiago del Estero - Argentina
santiago del estero,-27.7833312,-64.2666563,Argentina,Santiago del Estero,-3,santiago del estero - Santiago del Estero - Argentina
ushuaia,-54.7900032,-68.3100012,Argentina,Tierra del Fuego,-3,ushuaia - Tierra del Fuego - Argentina
trancas,-26.2166568,-65.2833126,Argentina,Tucum?n,-3,trancas - Tucum?n - Argentina
"tucum?n,san miguel de tucuman",-65.2166241,678803.5,AR,NULL,0,"tucum?n,san miguel de tucuman - NULL - AR"
ashtarak,40.3016667,44.3591667,Armenia,Aragatsotn,4,ashtarak - Aragatsotn - Armenia
artashat,39.9538889,44.5505556,Armenia,Ararat,4,artashat - Ararat - Armenia
yerevan,40.18115074,44.51355139,Armenia,Erevan,4,yerevan - Erevan - Armenia
gavarr,40.3588889,45.1266667,Armenia,Gegharkunik,4,gavarr - Gegharkunik - Armenia
vanadzor,40.81276593,44.48828162,Armenia,Lori,4,vanadzor - Lori - Armenia
gyumri,40.78943402,43.84749385,Armenia,Shirak,4,gyumri - Shirak - Armenia
ijevan,40.8755556,45.1491667,Armenia,Tavush,4,ijevan - Tavush - Armenia
yeghegnadzor,39.7611111,45.3333333,Armenia,Vayots Dzor,4,yeghegnadzor - Vayots Dzor - Armenia
oranjestad,12.53038373,-70.0289919,Aruba,,0,oranjestad -  - Aruba
queanbeyan,-35.3546004,149.2113468,Australia,Australian Capital Territory,0,queanbeyan - Australian Capital Territory - Australia
canberra,-35.2830285,149.1290262,Australia,Australian Capital Territory,0,canberra - Australian Capital Territory - Australia
central coast,-33.4200414,151.3000048,Australia,New South Wales,0,central coast - New South Wales - Australia
bourke,-30.1,145.9333333,Australia,New South Wales,0,bourke - New South Wales - Australia
tweed heads,-28.1825834,153.5466377,Australia,New South Wales,0,tweed heads - New South Wales - Australia
ivanhoe,-32.8996081,144.3000187,Australia,New South Wales,0,ivanhoe - New South Wales - Australia
wilcannia,-31.5662011,143.3833304,Australia,New South Wales,0,wilcannia - New South Wales - Australia
merimbula,-36.8996223,149.9000386,Australia,New South Wales,0,merimbula - New South Wales - Australia
echuca,-36.1295918,144.750017,Australia,New South Wales,0,echuca - New South Wales - Australia
deniliquin,-35.5295768,144.9500048,Australia,New South Wales,0,deniliquin - New South Wales - Australia
nowra,-34.8828462,150.6000476,Australia,New South Wales,0,nowra - New South Wales - Australia
ulladulla,-35.3495361,150.4700297,Australia,New South Wales,0,ulladulla - New South Wales - Australia
batemans bay,-35.6896187,150.2073067,Australia,New South Wales,0,batemans bay - New South Wales - Australia
cooma,-36.2395593,149.1200345,Australia,New South Wales,0,cooma - New South Wales - Australia
tumut,-35.3095902,148.2200378,Australia,New South Wales,0,tumut - New South Wales - Australia
leeton,-34.544934,146.3973067,Australia,New South Wales,0,leeton - New South Wales - Australia
young,-34.3095995,148.2900077,Australia,New South Wales,0,young - New South Wales - Australia
cowra,-33.8296288,148.6800097,Australia,New South Wales,0,cowra - New South Wales - Australia
forbes,-33.389604,148.0199983,Australia,New South Wales,0,forbes - New South Wales - Australia
goulburn,-34.7495727,149.7101794,Australia,New South Wales,0,goulburn - New South Wales - Australia
kiama,-34.7095751,150.8400329,Australia,New South Wales,0,kiama - New South Wales - Australia
katoomba,-33.706949,150.320013,Australia,New South Wales,0,katoomba - New South Wales - Australia
lithgow,-33.4961091,150.152788,Australia,New South Wales,0,lithgow - New South Wales - Australia
parkes,-33.1295682,148.170015,Australia,New South Wales,0,parkes - New South Wales - Australia
maitland,-32.7209627,151.555028,Australia,New South Wales,0,maitland - New South Wales - Australia
singleton,-32.569499,151.1600134,Australia,New South Wales,0,singleton - New South Wales - Australia
mudgee,-32.5896012,149.5801098,Australia,New South Wales,0,mudgee - New South Wales - Australia
muswellbrook,-32.269569,150.890004,Australia,New South Wales,0,muswellbrook - New South Wales - Australia
taree,-31.8976021,152.4618461,Australia,New South Wales,0,taree - New South Wales - Australia
kempsey,-31.0873673,152.8220308,Australia,New South Wales,0,kempsey - New South Wales - Australia
gunnedah,-30.9870117,150.2622904,Australia,New South Wales,0,gunnedah - New South Wales - Australia
coffs harbour,-30.3070532,153.1122973,Australia,New South Wales,0,coffs harbour - New South Wales - Australia
narrabri,-30.3319095,149.7874357,Australia,New South Wales,0,narrabri - New South Wales - Australia
inverell,-29.7667761,151.1125744,Australia,New South Wales,0,inverell - New South Wales - Australia
yamba,-29.4229913,153.353312,Australia,New South Wales,0,yamba - New South Wales - Australia
ballina,-28.8613533,153.5679801,Australia,New South Wales,0,ballina - New South Wales - Australia
wagga wagga,-35.1221598,147.3399882,Australia,New South Wales,0,wagga wagga - New South Wales - Australia
scone,-32.0796065,150.8501098,Australia,New South Wales,0,scone - New South Wales - Australia
byron bay,-28.6565079,153.6128869,Australia,New South Wales,0,byron bay - New South Wales - Australia
albury,-36.0600353,146.9200138,Australia,New South Wales,0,albury - New South Wales - Australia
forster-tuncurry,-32.1931396,152.5266483,Australia,New South Wales,0,forster-tuncurry - New South Wales - Australia
port macquarie,-31.4450199,152.9186657,Australia,New South Wales,0,port macquarie - New South Wales - Australia
tamworth,-31.1026118,150.9171342,Australia,New South Wales,0,tamworth - New South Wales - Australia
grafton,-29.711999,152.9376827,Australia,New South Wales,0,grafton - New South Wales - Australia
moree,-29.469895,149.8300687,Australia,New South Wales,0,moree - New South Wales - Australia
goondiwindi,-28.5548087,150.325284,Australia,New South Wales,0,goondiwindi - New South Wales - Australia
lismore,-28.8166532,153.2931132,Australia,New South Wales,0,lismore - New South Wales - Australia
wollongong,-34.4153812,150.890004,Australia,New South Wales,0,wollongong - New South Wales - Australia
griffith,-34.2900142,146.0400158,Australia,New South Wales,0,griffith - New South Wales - Australia
orange,-33.2799983,149.0999841,Australia,New South Wales,0,orange - New South Wales - Australia
dubbo,-32.2599572,148.5973274,Australia,New South Wales,0,dubbo - New South Wales - Australia
armidale,-30.5123119,151.667476,Australia,New South Wales,0,armidale - New South Wales - Australia
broken hill,-31.9499503,141.4331136,Australia,New South Wales,0,broken hill - New South Wales - Australia
pine creek,-13.8161734,131.816698,Australia,Northern Territory,0,pine creek - Northern Territory - Australia
adelaide river,-13.2495414,131.0999975,Australia,Northern Territory,0,adelaide river - Northern Territory - Australia
mcminns lagoon,-12.5328926,131.0500264,Australia,Northern Territory,0,mcminns lagoon - Northern Territory - Australia
newcastle waters,-17.5527929,133.4672432,Australia,Northern Territory,0,newcastle waters - Northern Territory - Australia
kaltukatjara,-25.7884142,128.9973352,Australia,Northern Territory,0,kaltukatjara - Northern Territory - Australia
tennant creek,-19.6500292,134.200015,Australia,Northern Territory,0,tennant creek - Northern Territory - Australia
yulara,-25.2405407,130.9888932,Australia,Northern Territory,0,yulara - Northern Territory - Australia
erldunda,-25.233306,133.1999727,Australia,Northern Territory,0,erldunda - Northern Territory - Australia
katherine,-14.4666247,132.266593,Australia,Northern Territory,0,katherine - Northern Territory - Australia
darwin,-12.4253539,130.8500386,Australia,Northern Territory,0,darwin - Northern Territory - Australia
alice springs,-23.7009964,133.8800345,Australia,Northern Territory,0,alice springs - Northern Territory - Australia
sunshine coast,-26.6799877,153.0500272,Australia,Queensland,0,sunshine coast - Queensland - Australia
proserpine,-20.4162357,148.5834781,Australia,Queensland,0,proserpine - Queensland - Australia
theodore,-24.949499,150.0833349,Australia,Queensland,0,theodore - Queensland - Australia
eidsvold,-25.3662178,151.1333483,Australia,Queensland,0,eidsvold - Queensland - Australia
barcaldine,-23.5661726,145.2833695,Australia,Queensland,0,barcaldine - Queensland - Australia
winton,-22.3996288,143.0332743,Australia,Queensland,0,winton - Queensland - Australia
longreach,-23.4495906,144.2500476,Australia,Queensland,0,longreach - Queensland - Australia
caboolture,-27.0829605,152.9499816,Australia,Queensland,0,caboolture - Queensland - Australia
warwick,-28.2292472,152.0203226,Australia,Queensland,0,warwick - Queensland - Australia
kingaroy,-26.5389627,151.840592,Australia,Queensland,0,kingaroy - Queensland - Australia
dalby,-27.1938582,151.2657434,Australia,Queensland,0,dalby - Queensland - Australia
bongaree,-27.0787231,153.1508996,Australia,Queensland,0,bongaree - Queensland - Australia
gympie,-26.1885965,152.6709289,Australia,Queensland,0,gympie - Queensland - Australia
ingham,-18.6495735,146.1666231,Australia,Queensland,0,ingham - Queensland - Australia
birdsville,-25.8996219,139.3666247,Australia,Queensland,0,birdsville - Queensland - Australia
bedourie,-24.3495873,139.4666186,Australia,Queensland,0,bedourie - Queensland - Australia
boulia,-22.8995983,139.9000288,Australia,Queensland,0,boulia - Queensland - Australia
burketown,-17.7160904,139.5666125,Australia,Queensland,0,burketown - Queensland - Australia
hervey bay,-25.2887031,152.8409444,Australia,Queensland,0,hervey bay - Queensland - Australia
biloela,-24.393564,150.4960746,Australia,Queensland,0,biloela - Queensland - Australia
yeppoon,-23.1329174,150.7567305,Australia,Queensland,0,yeppoon - Queensland - Australia
emerald,-23.5122224,148.1673278,Australia,Queensland,0,emerald - Queensland - Australia
moranbah,-22.0015653,148.0380334,Australia,Queensland,0,moranbah - Queensland - Australia
charters towers,-20.0809073,146.2587105,Australia,Queensland,0,charters towers - Queensland - Australia
atherton,-17.2702778,145.469353,Australia,Queensland,0,atherton - Queensland - Australia
port douglas,-16.4845881,145.4587219,Australia,Queensland,0,port douglas - Queensland - Australia
camooweal,-19.9167313,138.1166752,Australia,Queensland,0,camooweal - Queensland - Australia
quilpie,-26.6166324,144.2500476,Australia,Queensland,0,quilpie - Queensland - Australia
charleville,-26.4000048,146.2500288,Australia,Queensland,0,charleville - Queensland - Australia
hughenden,-20.8500077,144.2000248,Australia,Queensland,0,hughenden - Queensland - Australia
caloundra,-26.8000321,153.1333296,Australia,Queensland,0,caloundra - Queensland - Australia
roma,-26.5593749,148.7907006,Australia,Queensland,0,roma - Queensland - Australia
toowoomba,-27.5645332,151.9555204,Australia,Queensland,0,toowoomba - Queensland - Australia
thargomindah,-27.9999588,143.816689,Australia,Queensland,0,thargomindah - Queensland - Australia
weipa,-12.6666312,141.8666272,Australia,Queensland,0,weipa - Queensland - Australia
karumba,-17.4833398,140.8334086,Australia,Queensland,0,karumba - Queensland - Australia
cloncurry,-20.699991,140.4999922,Australia,Queensland,0,cloncurry - Queensland - Australia
bundaberg,-24.8790641,152.3508968,Australia,Queensland,0,bundaberg - Queensland - Australia
gladstone,-23.8533386,151.2467264,Australia,Queensland,0,gladstone - Queensland - Australia
bowen,-20.0013256,148.208669,Australia,Queensland,0,bowen - Queensland - Australia
innisfail,-17.5313472,146.0386722,Australia,Queensland,0,innisfail - Queensland - Australia
mackay,-21.1438915,149.1500069,Australia,Queensland,0,mackay - Queensland - Australia
windorah,-25.4332421,142.6501969,Australia,Queensland,0,windorah - Queensland - Australia
mount isa,-20.7238655,139.490028,Australia,Queensland,0,mount isa - Queensland - Australia
rockhampton,-23.3639111,150.5200008,Australia,Queensland,0,rockhampton - Queensland - Australia
cairns,-16.8878398,145.7633309,Australia,Queensland,0,cairns - Queensland - Australia
gold coast,-28.0815042,153.4482458,Australia,Queensland,0,gold coast - Queensland - Australia
townsville,-19.2499503,146.7699971,Australia,Queensland,0,townsville - Queensland - Australia
brisbane,-27.4550309,153.0350927,Australia,Queensland,0,brisbane - Queensland - Australia
berri,-34.2829345,140.6000378,Australia,South Australia,0,berri - South Australia - Australia
wallaroo,-33.9328784,137.6332938,Australia,South Australia,0,wallaroo - South Australia - Australia
clare,-33.8328845,138.6000048,Australia,South Australia,0,clare - South Australia - Australia
meningie,-35.6995405,139.3333451,Australia,South Australia,0,meningie - South Australia - Australia
kingston south east,-36.8328047,139.8500577,Australia,South Australia,0,kingston south east - South Australia - Australia
bordertown,-36.3161954,140.7666426,Australia,South Australia,0,bordertown - South Australia - Australia
penola,-37.382952,140.8166654,Australia,South Australia,0,penola - South Australia - Australia
kingoonya,-30.8995751,135.2999996,Australia,South Australia,0,kingoonya - South Australia - Australia
kimba,-33.1496187,136.4333671,Australia,South Australia,0,kimba - South Australia - Australia
streaky bay,-32.8118717,134.2149296,Australia,South Australia,0,streaky bay - South Australia - Australia
cowell,-33.6828678,136.9166451,Australia,South Australia,0,cowell - South Australia - Australia
tumby bay,-34.3829284,136.0833109,Australia,South Australia,0,tumby bay - South Australia - Australia
andamooka,-30.4309732,137.1655704,Australia,South Australia,0,andamooka - South Australia - Australia
woomera,-31.1495857,136.8000114,Australia,South Australia,0,woomera - South Australia - Australia
port pirie,-33.1910632,137.9900162,Australia,South Australia,0,port pirie - South Australia - Australia
gawler,-34.6073591,138.7263537,Australia,South Australia,0,gawler - South Australia - Australia
murray bridge,-35.1296012,139.2600162,Australia,South Australia,0,murray bridge - South Australia - Australia
victor harbor,-35.5596008,138.6173164,Australia,South Australia,0,victor harbor - South Australia - Australia
ceduna,-32.0991346,133.6622674,Australia,South Australia,0,ceduna - South Australia - Australia
mount gambier,-37.8313484,140.7650406,Australia,South Australia,0,mount gambier - South Australia - Australia
port augusta,-32.4900207,137.7700297,Australia,South Australia,0,port augusta - South Australia - Australia
port lincoln,-34.7332429,135.86658,Australia,South Australia,0,port lincoln - South Australia - Australia
whyalla,-33.0250268,137.5614119,Australia,South Australia,0,whyalla - South Australia - Australia
adelaide,-34.9349877,138.6000048,Australia,South Australia,0,adelaide - South Australia - Australia
smithton,-40.8329223,145.1166613,Australia,Tasmania,0,smithton - Tasmania - Australia
bicheno,-41.8783882,148.2886124,Australia,Tasmania,0,bicheno - Tasmania - Australia
oatlands,-42.2996028,147.3666015,Australia,Tasmania,0,oatlands - Tasmania - Australia
burnie,-41.0666031,145.9166642,Australia,Tasmania,0,burnie - Tasmania - Australia
launceston,-41.4498355,147.1301818,Australia,Tasmania,0,launceston - Tasmania - Australia
devonport,-41.1926675,146.3311017,Australia,Tasmania,0,devonport - Tasmania - Australia
hobart,-42.8500085,147.2950297,Australia,Tasmania,0,hobart - Tasmania - Australia
ouyen,-35.0661942,142.3166772,Australia,Victoria,0,ouyen - Victoria - Australia
colac,-38.3395344,143.5800109,Australia,Victoria,0,colac - Victoria - Australia
stawell,-37.0596126,142.7600093,Australia,Victoria,0,stawell - Victoria - Australia
horsham,-36.7096081,142.1900183,Australia,Victoria,0,horsham - Victoria - Australia
ararat,-37.2795475,142.9099743,Australia,Victoria,0,ararat - Victoria - Australia
maryborough,-37.0495873,143.729976,Australia,Victoria,0,maryborough - Victoria - Australia
bairnsdale,-37.8295914,147.6099975,Australia,Victoria,0,bairnsdale - Victoria - Australia
sale,-38.1095743,147.0600052,Australia,Victoria,0,sale - Victoria - Australia
traralgon,-38.1995947,146.5300118,Australia,Victoria,0,traralgon - Victoria - Australia
wonthaggi,-38.6094921,145.5900175,Australia,Victoria,0,wonthaggi - Victoria - Australia
cranbourne,-38.0996008,145.2833695,Australia,Victoria,0,cranbourne - Victoria - Australia
ballarat,-37.559582,143.8400468,Australia,Victoria,0,ballarat - Victoria - Australia
melton,-37.6895483,144.570028,Australia,Victoria,0,melton - Victoria - Australia
seymour,-37.0342394,145.1273067,Australia,Victoria,0,seymour - Victoria - Australia
shepparton,-36.3745898,145.3913732,Australia,Victoria,0,shepparton - Victoria - Australia
cobram,-35.9196305,145.6500138,Australia,Victoria,0,cobram - Victoria - Australia
swan hill,-35.3396142,143.5400134,Australia,Victoria,0,swan hill - Victoria - Australia
sunbury,-37.5696073,144.7100195,Australia,Victoria,0,sunbury - Victoria - Australia
warrnambool,-38.3799971,142.4700012,Australia,Victoria,0,warrnambool - Victoria - Australia
mildura,-34.1850077,142.1513643,Australia,Victoria,0,mildura - Victoria - Australia
geelong,-38.167495,144.3956335,Australia,Victoria,0,geelong - Victoria - Australia
bendigo,-36.7599926,144.2800199,Australia,Victoria,0,bendigo - Victoria - Australia
wangaratta,-36.360017,146.3,Australia,Victoria,0,wangaratta - Victoria - Australia
ravensthorpe,-33.5828739,120.0333345,Australia,Western Australia,0,ravensthorpe - Western Australia - Australia
wagin,-33.2995837,117.3499841,Australia,Western Australia,0,wagin - Western Australia - Australia
roebourne,-20.7829317,117.1333048,Australia,Western Australia,0,roebourne - Western Australia - Australia
pannawonica,-21.6365746,116.3250337,Australia,Western Australia,0,pannawonica - Western Australia - Australia
tom price,-22.693461,117.7930578,Australia,Western Australia,0,tom price - Western Australia - Australia
kalbarri,-27.6661808,114.1666642,Australia,Western Australia,0,kalbarri - Western Australia - Australia
mount magnet,-28.066208,117.8166739,Australia,Western Australia,0,mount magnet - Western Australia - Australia
morawa,-29.216267,116.0000406,Australia,Western Australia,0,morawa - Western Australia - Australia
port denison,-29.2828263,114.9166442,Australia,Western Australia,0,port denison - Western Australia - Australia
merredin,-31.482847,118.2666723,Australia,Western Australia,0,merredin - Western Australia - Australia
mount barker,-34.632784,117.6666056,Australia,Western Australia,0,mount barker - Western Australia - Australia
katanning,-33.6995593,117.5500752,Australia,Western Australia,0,katanning - Western Australia - Australia
narrogin,-32.9328877,117.1666361,Australia,Western Australia,0,narrogin - Western Australia - Australia
gingin,-31.3495735,115.9000468,Australia,Western Australia,0,gingin - Western Australia - Australia
bunbury,-33.3442838,115.6502429,Australia,Western Australia,0,bunbury - Western Australia - Australia
kwinana,-32.23939,115.7702356,Australia,Western Australia,0,kwinana - Western Australia - Australia
southern cross,-31.216145,119.3166857,Australia,Western Australia,0,southern cross - Western Australia - Australia
norseman,-32.2000125,121.7666137,Australia,Western Australia,0,norseman - Western Australia - Australia
halls creek,-18.2667028,127.7667126,Australia,Western Australia,0,halls creek - Western Australia - Australia
kununurra,-15.766597,128.7333203,Australia,Western Australia,0,kununurra - Western Australia - Australia
derby,-17.2999918,123.9666345,Australia,Western Australia,0,derby - Western Australia - Australia
onslow,-21.6575935,115.0962959,Australia,Western Australia,0,onslow - Western Australia - Australia
exmouth,-21.9310998,114.1233469,Australia,Western Australia,0,exmouth - Western Australia - Australia
newman,-23.3665982,119.7333011,Australia,Western Australia,0,newman - Western Australia - Australia
meekatharra,-26.5999926,118.4832999,Australia,Western Australia,0,meekatharra - Western Australia - Australia
three springs,-29.5333019,115.7499784,Australia,Western Australia,0,three springs - Western Australia - Australia
manjimup,-34.2333251,116.1500057,Australia,Western Australia,0,manjimup - Western Australia - Australia
northam,-31.6565832,116.6533858,Australia,Western Australia,0,northam - Western Australia - Australia
esperance,-33.857307,121.8888973,Australia,Western Australia,0,esperance - Western Australia - Australia
leonara,-28.8815071,121.3280358,Australia,Western Australia,0,leonara - Western Australia - Australia
laverton,-28.6270007,122.4040425,Australia,Western Australia,0,laverton - Western Australia - Australia
wyndham,-15.3739595,128.3600614,Australia,Western Australia,0,wyndham - Western Australia - Australia
busselton,-33.6564094,115.3486592,Australia,Western Australia,0,busselton - Western Australia - Australia
mandurah,-32.5234825,115.7470567,Australia,Western Australia,0,mandurah - Western Australia - Australia
broome,-17.9617706,122.2307681,Australia,Western Australia,0,broome - Western Australia - Australia
kalgoorlie,-30.7353991,121.4600175,Australia,Western Australia,0,kalgoorlie - Western Australia - Australia
port hedland,-20.3104024,118.6060315,Australia,Western Australia,0,port hedland - Western Australia - Australia
karratha,-20.7303767,116.8700134,Australia,Western Australia,0,karratha - Western Australia - Australia
eisenstadt,47.83329908,16.53329747,Austria,Burgenland,1,eisenstadt - Burgenland - Austria
klagenfurt,46.62034426,14.3100203,Austria,K?rnten,1,klagenfurt - K?rnten - Austria
wiener neustadt,47.81598187,16.24995357,Austria,Nieder?sterreich,1,wiener neustadt - Nieder?sterreich - Austria
linz,48.31923281,14.28878129,Austria,Ober?sterreich,1,linz - Ober?sterreich - Austria
passau,48.56704714,13.46660925,Austria,Ober?sterreich,1,passau - Ober?sterreich - Austria
salzburg,47.81047833,13.0400203,Austria,Salzburg,1,salzburg - Salzburg - Austria
graz,47.0777582,15.41000484,Austria,Steiermark,1,graz - Steiermark - Austria
innsbruck,47.28040733,11.4099906,Austria,Tirol,1,innsbruck - Tirol - Austria
bregenz,47.51669707,9.766701588,Austria,Vorarlberg,1,bregenz - Vorarlberg - Austria
vienna,48.20001528,16.36663896,Austria,Wien,1,vienna - Wien - Austria
ali bayramli,39.93230288,48.92025915,Azerbaijan,?li Bayramli,4,ali bayramli - ?li Bayramli - Azerbaijan
lankaran,38.7540027,48.85106441,Azerbaijan,Astara,4,lankaran - Astara - Azerbaijan
baku,40.39527203,49.86221716,Azerbaijan,Baki,4,baku - Baki - Azerbaijan
gadabay,40.5655556,45.8161111,Azerbaijan,Gadabay,4,gadabay - Gadabay - Azerbaijan
ganca,40.68499595,46.35002844,Azerbaijan,Ganca,4,ganca - Ganca - Azerbaijan
goranboy,40.6102778,46.7897222,Azerbaijan,Goranboy,4,goranboy - Goranboy - Azerbaijan
goycay,40.65342165,47.74058956,Azerbaijan,G?y?ay,4,goycay - G?y?ay - Azerbaijan
naxcivan,39.2092204,45.41220455,Azerbaijan,Nax?ivan,4,naxcivan - Nax?ivan - Azerbaijan
oguz,41.0708333,47.4583333,Azerbaijan,Oguz,4,oguz - Oguz - Azerbaijan
qabala,40.9813889,47.8458333,Azerbaijan,Qabala,4,qabala - Qabala - Azerbaijan
saki,41.19232932,47.17054683,Azerbaijan,S?ki,4,saki - S?ki - Azerbaijan
sumqayt,40.58001528,49.62998328,Azerbaijan,Sumqayit,4,sumqayt - Sumqayit - Azerbaijan
tovuz,40.9922222,45.6288889,Azerbaijan,Tovuz,4,tovuz - Tovuz - Azerbaijan
agdam,40.9052778,45.5563889,Azerbaijan,Tovuz,4,agdam - Tovuz - Azerbaijan
stepanakert,39.81564333,46.75196773,Azerbaijan,Xocali,4,stepanakert - Xocali - Azerbaijan
yevlax,40.61719647,47.15003129,Azerbaijan,Yevlax,4,yevlax - Yevlax - Azerbaijan
kapan,39.20152061,46.41498572,Azerbaijan,Z?ngilan,4,kapan - Z?ngilan - Azerbaijan
manama,26.23613629,50.58305172,Bahrain,,3,manama -  - Bahrain
barisal,22.70040895,90.37498979,Bangladesh,Barisal,6,barisal - Barisal - Bangladesh
comilla,23.47041363,91.16998002,Bangladesh,Chittagong,6,comilla - Chittagong - Bangladesh
chittagong,22.32999229,91.79996741,Bangladesh,Chittagong,6,chittagong - Chittagong - Bangladesh
tangail,24.24997845,89.92003048,Bangladesh,Dhaka,6,tangail - Dhaka - Bangladesh
mymensingh,24.75041302,90.3800024,Bangladesh,Dhaka,6,mymensingh - Dhaka - Bangladesh
narayanganj,23.62040448,90.49999508,Bangladesh,Dhaka,6,narayanganj - Dhaka - Bangladesh
dhaka,23.72305971,90.40857947,Bangladesh,Dhaka,6,dhaka - Dhaka - Bangladesh
jessore,23.17043194,89.19997107,Bangladesh,Khulna,6,jessore - Khulna - Bangladesh
khulna,22.839987,89.56000077,Bangladesh,Khulna,6,khulna - Khulna - Bangladesh
pabna,24.00038129,89.24999385,Bangladesh,Rajshahi,6,pabna - Rajshahi - Bangladesh
saidpur,25.80042645,88.99998328,Bangladesh,Rajshahi,6,saidpur - Rajshahi - Bangladesh
rangpur,25.75001609,89.28001786,Bangladesh,Rajshahi,6,rangpur - Rajshahi - Bangladesh
rajshahi,24.37498374,88.6050203,Bangladesh,Rajshahi,6,rajshahi - Rajshahi - Bangladesh
sylhet,24.90355613,91.87360632,Bangladesh,Sylhet,6,sylhet - Sylhet - Bangladesh
bridgetown,13.10200258,-59.6165267,Barbados,Saint Michael,-4,bridgetown - Saint Michael - Barbados
baranavichy,53.13684572,26.01344031,Belarus,Brest,2,baranavichy - Brest - Belarus
pinsk,52.12786338,26.09405554,Belarus,Brest,2,pinsk - Brest - Belarus
mazyr,52.04595624,29.27215613,Belarus,Homyel',2,mazyr - Homyel' - Belarus
homyel,52.43001548,31.00000932,Belarus,Homyel',2,homyel - Homyel' - Belarus
lida,53.88847943,25.28464758,Belarus,Hrodna,2,lida - Hrodna - Belarus
hrodna,53.67787213,23.83409013,Belarus,Hrodna,2,hrodna - Hrodna - Belarus
mahilyow,53.89850466,30.32465002,Belarus,Mahilyow,2,mahilyow - Mahilyow - Belarus
babruysk,53.12656211,29.19278113,Belarus,Mahilyow,2,babruysk - Mahilyow - Belarus
maladzyechna,54.31878908,26.86532629,Belarus,Minsk,2,maladzyechna - Minsk - Belarus
barysaw,54.22600405,28.49215206,Belarus,Minsk,2,barysaw - Minsk - Belarus
minsk,53.89997744,27.56662716,Belarus,Minsk,2,minsk - Minsk - Belarus
polatsk,55.48938946,28.78598425,Belarus,Vitsyebsk,2,polatsk - Vitsyebsk - Belarus
orsha,54.51531455,30.42154333,Belarus,Vitsyebsk,2,orsha - Vitsyebsk - Belarus
vitsyebsk,55.18871014,30.18533036,Belarus,Vitsyebsk,2,vitsyebsk - Vitsyebsk - Belarus
antwerpen,51.22037355,4.415017048,Belgium,Antwerp,1,antwerpen - Antwerp - Belgium
arlon,49.68330313,5.816700472,Belgium,Arlon,1,arlon - Arlon - Belgium
brugge,51.22037355,3.230024779,Belgium,Brugge,1,brugge - Brugge - Belgium
brussels,50.83331708,4.333316608,Belgium,Brussels,1,brussels - Brussels - Belgium
charleroi,50.42039654,4.450001992,Belgium,Charleroi,1,charleroi - Charleroi - Belgium
gent,51.02999758,3.700021931,Belgium,East Flanders,1,gent - East Flanders - Belgium
mons,50.44599911,3.939003561,Belgium,Hainaut,1,mons - Hainaut - Belgium
liege,50.62999615,5.580010537,Belgium,Liege,1,liege - Liege - Belgium
hasselt,50.96400317,5.483997561,Belgium,Limburg,1,hasselt - Limburg - Belgium
namur,50.47039349,4.870028034,Belgium,Namur,1,namur - Namur - Belgium
belize city,17.49871096,-88.1883744,Belize,Belize,-6,belize city - Belize - Belize
el cayo,17.15599807,-89.0610025,Belize,Cayo,-6,el cayo - Cayo - Belize
belmopan,17.25203351,-88.767073,Belize,Cayo,-6,belmopan - Cayo - Belize
corozal,18.39799811,-88.3880005,Belize,Corozal,-6,corozal - Corozal - Belize
orange walk,18.09043194,-88.5599797,Belize,Orange Walk,-6,orange walk - Orange Walk - Belize
dangriga,16.97003522,-88.2200004,Belize,Stann Creek,-6,dangriga - Stann Creek - Belize
punta gorda,16.1003467,-88.8100161,Belize,Toledo,-6,punta gorda - Toledo - Belize
natitingou,10.32041526,1.389982054,Benin,Atakora,1,natitingou - Atakora - Benin
ouidah,6.360372741,2.089991006,Benin,Atlantique,1,ouidah - Atlantique - Benin
parakou,9.340009988,2.620036172,Benin,Borgou,1,parakou - Borgou - Benin
djougou,9.700427265,1.680041869,Benin,Donga,1,djougou - Donga - Benin
lokossa,6.615000092,1.715004457,Benin,Mono,1,lokossa - Mono - Benin
porto-novo,6.483310973,2.616625528,Benin,Ou?m,1,porto-novo - Ou?m - Benin
cotonou,6.400008564,2.519990599,Benin,Ou?m,1,cotonou - Ou?m - Benin
abomey,7.190399596,1.98999711,Benin,Zou,1,abomey - Zou - Benin
punakha,27.63330305,89.83330266,Bhutan,Punakha,6,punakha - Punakha - Bhutan
paro,27.3833011,89.51670065,Bhutan,Thimphu,6,paro - Thimphu - Bhutan
thimphu,27.47298586,89.63901404,Bhutan,Thimphu,6,thimphu - Thimphu - Bhutan
wangdue prodrang,27.43329603,89.91669667,Bhutan,Wangdi Phodrang,6,wangdue prodrang - Wangdi Phodrang - Bhutan
tarabuco,-19.1800321,-64.9199497,Bolivia,Chuquisaca,-4,tarabuco - Chuquisaca - Bolivia
padilla,-19.2996113,-64.3099611,Bolivia,Chuquisaca,-4,padilla - Chuquisaca - Bolivia
camargo,-20.6395812,-65.2099837,Bolivia,Chuquisaca,-4,camargo - Chuquisaca - Bolivia
sucre,-19.0409708,-65.2595156,Bolivia,Chuquisaca,-4,sucre - Chuquisaca - Bolivia
punata,-17.5500024,-65.8399711,Bolivia,Cochabamba,-4,punata - Cochabamba - Bolivia
cliza,-17.5899999,-65.9299915,Bolivia,Cochabamba,-4,cliza - Cochabamba - Bolivia
quillacollo,-17.3999857,-66.2799959,Bolivia,Cochabamba,-4,quillacollo - Cochabamba - Bolivia
puerto villarroel,-16.8700439,-64.78001,Bolivia,Cochabamba,-4,puerto villarroel - Cochabamba - Bolivia
aiquile,-18.1895499,-65.1800114,Bolivia,Cochabamba,-4,aiquile - Cochabamba - Bolivia
cochabamba,-17.4100109,-66.1699768,Bolivia,Cochabamba,-4,cochabamba - Cochabamba - Bolivia
guayaramerin,-10.8299991,-65.4099974,Bolivia,El Beni,-4,guayaramerin - El Beni - Bolivia
baures,-13.5800121,-63.5800574,Bolivia,El Beni,-4,baures - El Beni - Bolivia
reyes,-14.30958,-67.3700069,Bolivia,El Beni,-4,reyes - El Beni - Bolivia
san borja,-14.8196264,-66.8499611,Bolivia,El Beni,-4,san borja - El Beni - Bolivia
riberalta,-10.983013,-66.1000069,Bolivia,El Beni,-4,riberalta - El Beni - Bolivia
sica sica,-17.3300158,-67.7299849,Bolivia,La Paz,-4,sica sica - La Paz - Bolivia
rurrenabaque,-14.4600101,-67.5599953,Bolivia,La Paz,-4,rurrenabaque - La Paz - Bolivia
sorata,-15.7900064,-68.6600574,Bolivia,La Paz,-4,sorata - La Paz - Bolivia
achacachi,-16.0833219,-68.6665686,Bolivia,La Paz,-4,achacachi - La Paz - Bolivia
viacha,-16.6500056,-68.2999502,Bolivia,La Paz,-4,viacha - La Paz - Bolivia
quime,-16.9800113,-67.2200161,Bolivia,La Paz,-4,quime - La Paz - Bolivia
puerto heath,-12.499613,-68.6665686,Bolivia,La Paz,-4,puerto heath - La Paz - Bolivia
charana,-17.5996118,-69.4665973,Bolivia,La Paz,-4,charana - La Paz - Bolivia
puerto acosta,-15.4995849,-69.1666673,Bolivia,La Paz,-4,puerto acosta - La Paz - Bolivia
apolo,-14.7195808,-68.4199945,Bolivia,La Paz,-4,apolo - La Paz - Bolivia
coroico,-16.1896203,-67.7200114,Bolivia,La Paz,-4,coroico - La Paz - Bolivia
coro coro,-17.1696122,-68.4499668,Bolivia,La Paz,-4,coro coro - La Paz - Bolivia
sabaya,-19.0162695,-68.3832784,Bolivia,Oruro,-4,sabaya - Oruro - Bolivia
challapata,-18.8995841,-66.7799912,Bolivia,Oruro,-4,challapata - Oruro - Bolivia
oruro,-17.9799503,-67.1299957,Bolivia,Oruro,-4,oruro - Oruro - Bolivia
cobija,-11.0333459,-68.7333087,Bolivia,Pando,-4,cobija - Pando - Bolivia
llallagua,-18.4200268,-66.6399998,Bolivia,"Potos?
Uncia",-4,"llallagua - Potos?
Uncia - Bolivia"
samaipata,-18.1800414,-63.7700199,Bolivia,Santa Cruz,-4,samaipata - Santa Cruz - Bolivia
cuevo,-20.4500321,-63.5299829,Bolivia,Santa Cruz,-4,cuevo - Santa Cruz - Bolivia
montero,-17.3496012,-63.2600252,Bolivia,Santa Cruz,-4,montero - Santa Cruz - Bolivia
piso firme,-13.6829516,-61.8666219,Bolivia,Santa Cruz,-4,piso firme - Santa Cruz - Bolivia
robore,-18.3295414,-59.7599805,Bolivia,Santa Cruz,-4,robore - Santa Cruz - Bolivia
puerto quijarro,-17.7796008,-57.7700244,Bolivia,Santa Cruz,-4,puerto quijarro - Santa Cruz - Bolivia
san ignacio,-16.3696093,-60.9600106,Bolivia,Santa Cruz,-4,san ignacio - Santa Cruz - Bolivia
san javier,-16.2896142,-62.5000199,Bolivia,Santa Cruz,-4,san javier - Santa Cruz - Bolivia
san rafael,-16.7795068,-60.6799502,Bolivia,Santa Cruz,-4,san rafael - Santa Cruz - Bolivia
vallegrande,-18.4895833,-64.1099992,Bolivia,Santa Cruz,-4,vallegrande - Santa Cruz - Bolivia
puerto suarez,-18.9495552,-57.8499679,Bolivia,Santa Cruz,-4,puerto suarez - Santa Cruz - Bolivia
charagua,-19.7995808,-63.2199502,Bolivia,Santa Cruz,-4,charagua - Santa Cruz - Bolivia
camiri,-20.0500048,-63.5199835,Bolivia,Santa Cruz,-4,camiri - Santa Cruz - Bolivia
san matias,-16.3599975,-58.4200106,Bolivia,Santa Cruz,-4,san matias - Santa Cruz - Bolivia
"san jos?,san jose",-60.7799957,9211,BO,NULL,0,"san jos?,san jose - NULL - BO"
entre rios,-21.5300178,-64.1899943,Bolivia,Tarija,-4,entre rios - Tarija - Bolivia
villamontes,-21.2495698,-63.5000106,Bolivia,Tarija,-4,villamontes - Tarija - Bolivia
bermejo,-22.7295829,-64.3499845,Bolivia,Tarija,-4,bermejo - Tarija - Bolivia
tarija,-21.5166853,-64.749986,Bolivia,Tarija,-4,tarija - Tarija - Bolivia
mostar,43.35049217,17.82003861,Bosnia and Herzegovina,Herzegovina-Neretva,1,mostar - Herzegovina-Neretva - Bosnia and Herzegovina
sarajevo,43.8500224,18.38300167,Bosnia and Herzegovina,Sarajevo,1,sarajevo - Sarajevo - Bosnia and Herzegovina
prijedor,44.98039268,16.70000362,Bosnia and Herzegovina,Serbian Republic,1,prijedor - Serbian Republic - Bosnia and Herzegovina
banja luka,44.78040489,17.17997432,Bosnia and Herzegovina,Serbian Republic,1,banja luka - Serbian Republic - Bosnia and Herzegovina
tuzla,44.5504706,18.6800378,Bosnia and Herzegovina,Tuzla,1,tuzla - Tuzla - Bosnia and Herzegovina
zenica,44.21997398,17.91998083,Bosnia and Herzegovina,Zenica-Doboj,1,zenica - Zenica-Doboj - Bosnia and Herzegovina
nata,-20.2094783,26.19001868,Botswana,Central,2,nata - Central - Botswana
mopipi,-21.1795483,24.88002112,Botswana,Central,2,mopipi - Central - Botswana
palapye,-22.5596191,27.13001298,Botswana,Central,2,palapye - Central - Botswana
francistown,-21.1700398,27.50001623,Botswana,Central,2,francistown - Central - Botswana
mahalapye,-23.0999995,26.82000606,Botswana,Central,2,mahalapye - Central - Botswana
serowe,-22.390017,26.71003861,Botswana,Central,2,serowe - Central - Botswana
ghanzi,-21.6996199,21.63996049,Botswana,Ghanzi,2,ghanzi - Ghanzi - Botswana
lokhwabe,-24.1695983,21.83002641,Botswana,Kgalagadi,2,lokhwabe - Kgalagadi - Botswana
lehututu,-23.9696105,21.87002397,Botswana,Kgalagadi,2,lehututu - Kgalagadi - Botswana
tshabong,-26.009486,22.40001745,Botswana,Kgalagadi,2,tshabong - Kgalagadi - Botswana
mochudi,-24.377004,26.15200256,Botswana,Kgatleng,2,mochudi - Kgatleng - Botswana
molepolole,-24.3999719,25.5100085,Botswana,Kweneng,2,molepolole - Kweneng - Botswana
tsau,-20.1596105,22.45996212,Botswana,North-West,2,tsau - North-West - Botswana
nokaneng,-19.6696146,22.26999955,Botswana,North-West,2,nokaneng - North-West - Botswana
mohembo,-18.299569,21.8000024,Botswana,North-West,2,mohembo - North-West - Botswana
maun,-19.9895951,23.42000688,Botswana,North-West,2,maun - North-West - Botswana
kasane,-17.8095731,25.15003048,Botswana,North-West,2,kasane - North-West - Botswana
lobatse,-25.2196118,25.68002397,Botswana,South-East,2,lobatse - South-East - Botswana
gaborone,-24.6463134,25.91194779,Botswana,South-East,2,gaborone - South-East - Botswana
kanye,-24.9696012,25.33999304,Botswana,Southern,2,kanye - Southern - Botswana
sena madureira,-9.07000323,-68.6699792,Brazil,Acre,0,sena madureira - Acre - Brazil
rio branco,-9.96658933,-67.8000065,Brazil,Acre,0,rio branco - Acre - Brazil
cruzeiro do sul,-7.62998777,-72.6699676,Brazil,Acre,0,cruzeiro do sul - Acre - Brazil
rio largo,-9.48000405,-35.8399676,Brazil,Alagoas,0,rio largo - Alagoas - Brazil
palmeira dos indios,-9.41659706,-36.6166386,Brazil,Alagoas,0,palmeira dos indios - Alagoas - Brazil
penedo,-10.2696199,-36.5800258,Brazil,Alagoas,0,penedo - Alagoas - Brazil
arapiraca,-9.7500134,-36.6699945,Brazil,Alagoas,0,arapiraca - Alagoas - Brazil
maceio,-9.6199955,-35.7299744,Brazil,Alagoas,0,maceio - Alagoas - Brazil
porto santana,-0.03959836,-51.1799874,Brazil,"Amap?
Laranjal do Jari",0,"porto santana - Amap?
Laranjal do Jari - Brazil"
maues,-3.38962644,-57.7200275,Brazil,Amazonas,0,maues - Amazonas - Brazil
fonte boa,-2.51381427,-66.0916095,Brazil,Amazonas,0,fonte boa - Amazonas - Brazil
eirunepe,-6.66002114,-69.8738076,Brazil,Amazonas,0,eirunepe - Amazonas - Brazil
manicore,-5.81216591,-61.2974835,Brazil,Amazonas,0,manicore - Amazonas - Brazil
barcelos,-0.97499347,-62.9238959,Brazil,Amazonas,0,barcelos - Amazonas - Brazil
tonantins,-2.87270709,-67.8018927,Brazil,Amazonas,0,tonantins - Amazonas - Brazil
tefe,-3.36001585,-64.699989,Brazil,Amazonas,0,tefe - Amazonas - Brazil
coari,-4.0799719,-63.1299815,Brazil,Amazonas,0,coari - Amazonas - Brazil
sao cabriel da cachoeira,-0.13323606,-67.0833061,Brazil,Amazonas,0,sao cabriel da cachoeira - Amazonas - Brazil
novo airao,-2.62078448,-60.9437842,Brazil,Amazonas,0,novo airao - Amazonas - Brazil
itacoatiara,-3.14002927,-58.4399835,Brazil,Amazonas,0,itacoatiara - Amazonas - Brazil
parintins,-2.61003578,-56.7400098,Brazil,Amazonas,0,parintins - Amazonas - Brazil
crato,-7.46389972,-63.0399611,Brazil,Amazonas,0,crato - Amazonas - Brazil
manaus,-3.10003171,-60.0000175,Brazil,Amazonas,0,manaus - Amazonas - Brazil
santa cruz cabralia,-16.2800024,-39.0299797,Brazil,Bahia,0,santa cruz cabralia - Bahia - Brazil
paulo afonso,-9.33065916,-38.2656594,Brazil,Bahia,0,paulo afonso - Bahia - Brazil
brumado,-14.2099995,-41.6700252,Brazil,Bahia,0,brumado - Bahia - Brazil
jaguaquara,-13.5299894,-39.9699998,Brazil,Bahia,0,jaguaquara - Bahia - Brazil
itapetinga,-15.2499877,-40.2499827,Brazil,Bahia,0,itapetinga - Bahia - Brazil
ubaitaba,-14.3000199,-39.330013,Brazil,Bahia,0,ubaitaba - Bahia - Brazil
itabuna,-14.7896024,-39.2800161,Brazil,Bahia,0,itabuna - Bahia - Brazil
itamaraju,-17.0395943,-39.5299491,Brazil,Bahia,0,itamaraju - Bahia - Brazil
guanambi,-14.2295849,-42.7899827,Brazil,Bahia,0,guanambi - Bahia - Brazil
porto seguro,-16.4296056,-39.0800283,Brazil,Bahia,0,porto seguro - Bahia - Brazil
valenca,-13.3596122,-39.0800283,Brazil,Bahia,0,valenca - Bahia - Brazil
serrinha,-11.6495873,-39.0100067,Brazil,Bahia,0,serrinha - Bahia - Brazil
tucano,-10.9696288,-38.7899943,Brazil,Bahia,0,tucano - Bahia - Brazil
senhor do bonfim,-10.4496089,-40.1900122,Brazil,Bahia,0,senhor do bonfim - Bahia - Brazil
remanso,-9.59958331,-42.1099984,Brazil,Bahia,0,remanso - Bahia - Brazil
itambe,-15.2396008,-40.6299853,Brazil,Bahia,0,itambe - Bahia - Brazil
bom jesus da lapa,-13.2495414,-43.4400205,Brazil,Bahia,0,bom jesus da lapa - Bahia - Brazil
itaberaba,-12.5196118,-40.2999797,Brazil,Bahia,0,itaberaba - Bahia - Brazil
nova vicosa,-17.8800081,-39.3700106,Brazil,Bahia,0,nova vicosa - Bahia - Brazil
alagoinhas,-12.1399967,-38.4299904,Brazil,Bahia,0,alagoinhas - Bahia - Brazil
juazeiro,-9.42000771,-40.4999674,Brazil,Bahia,0,juazeiro - Bahia - Brazil
jequie,-13.8500215,-40.0799931,Brazil,Bahia,0,jequie - Bahia - Brazil
ilheus,-14.7800423,-39.0500043,Brazil,Bahia,0,ilheus - Bahia - Brazil
canavieiras,-15.6400414,-38.9600098,Brazil,Bahia,0,canavieiras - Bahia - Brazil
santa maria da vitoria,-13.3899979,-44.2100252,Brazil,Bahia,0,santa maria da vitoria - Bahia - Brazil
irece,-11.2999963,-41.870013,Brazil,Bahia,0,irece - Bahia - Brazil
xique-xique,-10.8200256,-42.7300122,Brazil,Bahia,0,xique-xique - Bahia - Brazil
vitoria da conquista,-14.8500121,-40.8399984,Brazil,Bahia,0,vitoria da conquista - Bahia - Brazil
barreiras,-12.1399967,-45.0000028,Brazil,Bahia,0,barreiras - Bahia - Brazil
feira de santana,-12.2500158,-38.9700092,Brazil,Bahia,0,feira de santana - Bahia - Brazil
salvador,-12.9699719,-38.4799874,Brazil,Bahia,0,salvador - Bahia - Brazil
camocim,-2.89999225,-40.8500236,Brazil,"Cear?
Russas",0,"camocim - Cear?
Russas - Brazil"
cachoeiro de itapemirim,-20.8500077,-41.1299807,Brazil,Esp?rito Santo,0,cachoeiro de itapemirim - Esp?rito Santo - Brazil
sao mateus,-18.7296203,-39.8599807,Brazil,Esp?rito Santo,0,sao mateus - Esp?rito Santo - Brazil
vit?ria,-20.3239933,-40.3659963,Brazil,Esp?rito Santo,0,vit?ria - Esp?rito Santo - Brazil
linhares,-19.3899934,-40.0500207,Brazil,Esp?rito Santo,0,linhares - Esp?rito Santo - Brazil
vila velha,-20.3676082,-40.3179889,Brazil,Esp?rito Santo,0,vila velha - Esp?rito Santo - Brazil
morrinhos,-17.7300431,-49.1099845,Brazil,Goi?s,0,morrinhos - Goi?s - Brazil
ceres,-15.3033178,-49.6051998,Brazil,Goi?s,0,ceres - Goi?s - Brazil
catalao,-18.1800414,-47.9500037,Brazil,Goi?s,0,catalao - Goi?s - Brazil
cristalina,-16.7699983,-47.6100244,Brazil,Goi?s,0,cristalina - Goi?s - Brazil
trindade,-16.6500056,-49.4999866,Brazil,Goi?s,0,trindade - Goi?s - Brazil
ipora,-16.4500178,-51.1299904,Brazil,Goi?s,0,ipora - Goi?s - Brazil
inhumas,-16.3599975,-49.4999866,Brazil,Goi?s,0,inhumas - Goi?s - Brazil
itaberai,-16.0199666,-49.8099676,Brazil,Goi?s,0,itaberai - Goi?s - Brazil
pires do rio,-17.2995267,-48.2799835,Brazil,Goi?s,0,pires do rio - Goi?s - Brazil
anapolis,-16.3195865,-48.9599679,Brazil,Goi?s,0,anapolis - Goi?s - Brazil
goianesia,-15.3096223,-49.1300092,Brazil,Goi?s,0,goianesia - Goi?s - Brazil
niquelandia,-14.4696219,-48.4700236,Brazil,Goi?s,0,niquelandia - Goi?s - Brazil
itumbiara,-18.3996146,-49.2100043,Brazil,Goi?s,0,itumbiara - Goi?s - Brazil
jatai,-17.8795947,-51.7500043,Brazil,Goi?s,0,jatai - Goi?s - Brazil
mineiros,-17.5695361,-52.5599807,Brazil,Goi?s,0,mineiros - Goi?s - Brazil
formosa,-15.5394791,-47.3399892,Brazil,Goi?s,0,formosa - Goi?s - Brazil
goiania,-16.7200272,-49.3000246,Brazil,Goi?s,0,goiania - Goi?s - Brazil
grajau,-5.8099955,-46.1499843,Brazil,Maranh?o,0,grajau - Maranh?o - Brazil
presidente dutra,-5.25002968,-44.5199805,Brazil,Maranh?o,0,presidente dutra - Maranh?o - Brazil
itapecuru mirim,-3.4000134,-44.3600161,Brazil,Maranh?o,0,itapecuru mirim - Maranh?o - Brazil
sao jose de ribamar,-2.54998777,-44.0699821,Brazil,Maranh?o,0,sao jose de ribamar - Maranh?o - Brazil
santa ines,-3.65999753,-45.3900307,Brazil,Maranh?o,0,santa ines - Maranh?o - Brazil
timon,-5.11499916,-42.8449664,Brazil,Maranh?o,0,timon - Maranh?o - Brazil
pedreiras,-4.5696061,-44.670023,Brazil,Maranh?o,0,pedreiras - Maranh?o - Brazil
codo,-4.47958575,-43.8799679,Brazil,Maranh?o,0,codo - Maranh?o - Brazil
coroata,-4.12958128,-44.150003,Brazil,Maranh?o,0,coroata - Maranh?o - Brazil
chapadinha,-3.73952756,-43.3599996,Brazil,Maranh?o,0,chapadinha - Maranh?o - Brazil
pinheiro,-2.51960203,-45.0899974,Brazil,Maranh?o,0,pinheiro - Maranh?o - Brazil
barra do corda,-5.5096004,-45.2599611,Brazil,Maranh?o,0,barra do corda - Maranh?o - Brazil
viana,-3.20958575,-45.0000028,Brazil,Maranh?o,0,viana - Maranh?o - Brazil
colinas,-6.03954221,-44.2399976,Brazil,Maranh?o,0,colinas - Maranh?o - Brazil
bacabal,-4.22998858,-44.7999892,Brazil,Maranh?o,0,bacabal - Maranh?o - Brazil
imperatriz,-5.52003904,-47.4900059,Brazil,Maranh?o,0,imperatriz - Maranh?o - Brazil
balsas,-7.52002032,-46.0499904,Brazil,Maranh?o,0,balsas - Maranh?o - Brazil
"s?o lu?s,sao luis",-44.2659908,524692.5,BR,NULL,0,"s?o lu?s,sao luis - NULL - BR"
caxias,-4.83300087,-43.350026,Brazil,Maranh?o,0,caxias - Maranh?o - Brazil
varzea grande,-15.650015,-56.1400205,Brazil,Mato Grosso,0,varzea grande - Mato Grosso - Brazil
c?ceres,-16.0500423,-57.5100144,Brazil,Mato Grosso,0,c?ceres - Mato Grosso - Brazil
juina,-11.3995768,-59.5000222,Brazil,Mato Grosso,0,juina - Mato Grosso - Brazil
barra do garcas,-15.8796134,-52.259999,Brazil,Mato Grosso,0,barra do garcas - Mato Grosso - Brazil
pontes e lacerda,-15.219602,-59.3499797,Brazil,Mato Grosso,0,pontes e lacerda - Mato Grosso - Brazil
barra do bugres,-15.0695853,-57.1900081,Brazil,Mato Grosso,0,barra do bugres - Mato Grosso - Brazil
rondonopolis,-16.4694999,-54.6399829,Brazil,Mato Grosso,0,rondonopolis - Mato Grosso - Brazil
mato grosso,-15.0000288,-59.9500205,Brazil,Mato Grosso,0,mato grosso - Mato Grosso - Brazil
aripuana,-9.16999713,-60.6400043,Brazil,Mato Grosso,0,aripuana - Mato Grosso - Brazil
colider,-10.8172867,-55.4505794,Brazil,Mato Grosso,0,colider - Mato Grosso - Brazil
alta floresta,-9.90003009,-55.9099829,Brazil,Mato Grosso,0,alta floresta - Mato Grosso - Brazil
cuiaba,-15.5696065,-56.0849851,Brazil,Mato Grosso,0,cuiaba - Mato Grosso - Brazil
ponta pora,-22.5300085,-55.7299681,Brazil,Mato Grosso do Sul,0,ponta pora - Mato Grosso do Sul - Brazil
maracaju,-21.610013,-55.1800275,Brazil,Mato Grosso do Sul,0,maracaju - Mato Grosso do Sul - Brazil
jardim,-21.4799434,-56.1500199,Brazil,Mato Grosso do Sul,0,jardim - Mato Grosso do Sul - Brazil
tres lagoas,-20.7900113,-51.7200061,Brazil,Mato Grosso do Sul,0,tres lagoas - Mato Grosso do Sul - Brazil
aquidauana,-20.4696174,-55.7900161,Brazil,Mato Grosso do Sul,0,aquidauana - Mato Grosso do Sul - Brazil
paranaiba,-19.6795882,-51.200012,Brazil,Mato Grosso do Sul,0,paranaiba - Mato Grosso do Sul - Brazil
dourados,-22.2300268,-54.8099984,Brazil,Mato Grosso do Sul,0,dourados - Mato Grosso do Sul - Brazil
corumba,-19.0160111,-57.6500059,Brazil,Mato Grosso do Sul,0,corumba - Mato Grosso do Sul - Brazil
campo grande,-20.4500321,-54.6166252,Brazil,Mato Grosso do Sul,0,campo grande - Mato Grosso do Sul - Brazil
guanhaes,-18.7800048,-42.9500246,Brazil,Minas Gerais,0,guanhaes - Minas Gerais - Brazil
leopoldina,-21.5300178,-42.6400435,Brazil,Minas Gerais,0,leopoldina - Minas Gerais - Brazil
nova lima,-19.9800349,-43.8500214,Brazil,Minas Gerais,0,nova lima - Minas Gerais - Brazil
pouso alegre,-22.2200016,-45.940023,Brazil,Minas Gerais,0,pouso alegre - Minas Gerais - Brazil
itauna,-20.06003,-44.5700291,Brazil,Minas Gerais,0,itauna - Minas Gerais - Brazil
caratinga,-19.7900207,-42.1399965,Brazil,Minas Gerais,0,caratinga - Minas Gerais - Brazil
diamantina,-18.2399861,-43.6099843,Brazil,Minas Gerais,0,diamantina - Minas Gerais - Brazil
nanuque,-17.8399588,-40.3500283,Brazil,Minas Gerais,0,nanuque - Minas Gerais - Brazil
barbacena,-21.2200109,-43.7700004,Brazil,Minas Gerais,0,barbacena - Minas Gerais - Brazil
pocos de caldas,-21.7800284,-46.5699845,Brazil,Minas Gerais,0,pocos de caldas - Minas Gerais - Brazil
guaxupe,-21.2900325,-46.7099502,Brazil,Minas Gerais,0,guaxupe - Minas Gerais - Brazil
sao joao del rei,-21.1300423,-44.2499969,Brazil,Minas Gerais,0,sao joao del rei - Minas Gerais - Brazil
muriae,-21.1300423,-42.3899813,Brazil,Minas Gerais,0,muriae - Minas Gerais - Brazil
passos,-20.7100162,-46.6099821,Brazil,Minas Gerais,0,passos - Minas Gerais - Brazil
conselheiro lafaiete,-20.6700187,-43.7899992,Brazil,Minas Gerais,0,conselheiro lafaiete - Minas Gerais - Brazil
formiga,-20.4600056,-45.4300283,Brazil,Minas Gerais,0,formiga - Minas Gerais - Brazil
frutal,-20.030006,-48.9400207,Brazil,Minas Gerais,0,frutal - Minas Gerais - Brazil
iturama,-19.7299727,-50.2000214,Brazil,Minas Gerais,0,iturama - Minas Gerais - Brazil
ituiutaba,-18.9700191,-49.459989,Brazil,Minas Gerais,0,ituiutaba - Minas Gerais - Brazil
araguari,-18.6400134,-48.1999884,Brazil,Minas Gerais,0,araguari - Minas Gerais - Brazil
almenara,-16.1700349,-40.7000069,Brazil,Minas Gerais,0,almenara - Minas Gerais - Brazil
sete lagoas,-19.449628,-44.2499969,Brazil,Minas Gerais,0,sete lagoas - Minas Gerais - Brazil
divinopolis,-20.1495336,-44.8999831,Brazil,Minas Gerais,0,divinopolis - Minas Gerais - Brazil
ipatinga,-19.4796004,-42.5199992,Brazil,Minas Gerais,0,ipatinga - Minas Gerais - Brazil
araxa,-19.5795943,-46.950013,Brazil,Minas Gerais,0,araxa - Minas Gerais - Brazil
lavras,-21.2495698,-45.0099506,Brazil,Minas Gerais,0,lavras - Minas Gerais - Brazil
uba,-21.1196036,-42.9500246,Brazil,Minas Gerais,0,uba - Minas Gerais - Brazil
campo belo,-20.8895918,-45.2799858,Brazil,Minas Gerais,0,campo belo - Minas Gerais - Brazil
ponte nova,-20.4096211,-42.8999502,Brazil,Minas Gerais,0,ponte nova - Minas Gerais - Brazil
curvelo,-18.7595926,-44.429986,Brazil,Minas Gerais,0,curvelo - Minas Gerais - Brazil
paracatu,-17.1995845,-46.8699921,Brazil,Minas Gerais,0,paracatu - Minas Gerais - Brazil
bocaiuva,-17.1096158,-43.8100496,Brazil,Minas Gerais,0,bocaiuva - Minas Gerais - Brazil
aracuai,-16.8596052,-42.0699491,Brazil,Minas Gerais,0,aracuai - Minas Gerais - Brazil
janauba,-15.7996183,-43.3099768,Brazil,Minas Gerais,0,janauba - Minas Gerais - Brazil
governador valadares,-18.8700252,-41.9700069,Brazil,Minas Gerais,0,governador valadares - Minas Gerais - Brazil
pirapora,-17.3300158,-44.9299813,Brazil,Minas Gerais,0,pirapora - Minas Gerais - Brazil
juiz de fora,-21.7700032,-43.3749858,Brazil,Minas Gerais,0,juiz de fora - Minas Gerais - Brazil
teofilo otoni,-17.8700345,-41.5000098,Brazil,Minas Gerais,0,teofilo otoni - Minas Gerais - Brazil
uberaba,-19.7799955,-47.9500037,Brazil,Minas Gerais,0,uberaba - Minas Gerais - Brazil
januaria,-15.4799995,-44.3699896,Brazil,Minas Gerais,0,januaria - Minas Gerais - Brazil
belo horizonte,-19.915026,-43.9150045,Brazil,Minas Gerais,0,belo horizonte - Minas Gerais - Brazil
montes claros,-16.7200272,-43.8600207,Brazil,Minas Gerais,0,montes claros - Minas Gerais - Brazil
uberlandia,-18.8999975,-48.2799835,Brazil,Minas Gerais,0,uberlandia - Minas Gerais - Brazil
capanema,-1.1900191,-47.179999,Brazil,"Par?
Portel",0,"capanema - Par?
Portel - Brazil"
joao pessoa,-7.10113513,-34.8760711,Brazil,Para?ba,0,joao pessoa - Para?ba - Brazil
campina grande,-7.23001218,-35.8800169,Brazil,Para?ba,0,campina grande - Para?ba - Brazil
guaira,-24.0899649,-54.2699797,Brazil,"Paran?
Palmas",0,"guaira - Paran?
Palmas - Brazil"
olinda,-7.99999102,-34.8499506,Brazil,Pernambuco,0,olinda - Pernambuco - Brazil
cabo de santo agostinho,-8.28999916,-35.0299912,Brazil,Pernambuco,0,cabo de santo agostinho - Pernambuco - Brazil
carpina,-7.84000079,-35.260003,Brazil,Pernambuco,0,carpina - Pernambuco - Brazil
arcoverde,-8.42001707,-37.0699959,Brazil,Pernambuco,0,arcoverde - Pernambuco - Brazil
barreiros,-8.82960447,-35.2000067,Brazil,Pernambuco,0,barreiros - Pernambuco - Brazil
salgueiro,-8.05962563,-39.1300252,Brazil,Pernambuco,0,salgueiro - Pernambuco - Brazil
goiana,-7.55960447,-34.9999931,Brazil,Pernambuco,0,goiana - Pernambuco - Brazil
timbauba,-7.49960813,-35.3200252,Brazil,Pernambuco,0,timbauba - Pernambuco - Brazil
garanhuns,-8.89001422,-36.5000307,Brazil,Pernambuco,0,garanhuns - Pernambuco - Brazil
caruaru,-8.28002561,-35.9800108,Brazil,Pernambuco,0,caruaru - Pernambuco - Brazil
petrolina,-9.38001015,-40.5099668,Brazil,Pernambuco,0,petrolina - Pernambuco - Brazil
recife,-8.07564532,-34.9156055,Brazil,Pernambuco,0,recife - Pernambuco - Brazil
campo maior,-4.82003009,-42.1800199,Brazil,"Piau?
Barras",0,"campo maior - Piau?
Barras - Brazil"
nova iguacu,-22.7400215,-43.469967,Brazil,Rio de Janeiro,0,nova iguacu - Rio de Janeiro - Brazil
duque de caxias,-22.7699938,-43.3099768,Brazil,Rio de Janeiro,0,duque de caxias - Rio de Janeiro - Brazil
niteroi,-22.9000117,-43.0999896,Brazil,Rio de Janeiro,0,niteroi - Rio de Janeiro - Brazil
cabo frio,-22.8899865,-42.0399768,Brazil,Rio de Janeiro,0,cabo frio - Rio de Janeiro - Brazil
macae,-22.3799918,-41.7899921,Brazil,Rio de Janeiro,0,macae - Rio de Janeiro - Brazil
miracema,-21.4100252,-42.199967,Brazil,Rio de Janeiro,0,miracema - Rio de Janeiro - Brazil
volta redonda,-22.5195698,-44.0949676,Brazil,Rio de Janeiro,0,volta redonda - Rio de Janeiro - Brazil
petropolis,-22.5094929,-43.1999835,Brazil,Rio de Janeiro,0,petropolis - Rio de Janeiro - Brazil
nova friburgo,-22.2599991,-42.5400496,Brazil,Rio de Janeiro,0,nova friburgo - Rio de Janeiro - Brazil
campos,-21.7499527,-41.3200207,Brazil,Rio de Janeiro,0,campos - Rio de Janeiro - Brazil
rio de janeiro,-22.9250231,-43.2250207,Brazil,Rio de Janeiro,0,rio de janeiro - Rio de Janeiro - Brazil
apodi,-5.65000527,-37.800003,Brazil,Rio Grande do Norte,0,apodi - Rio Grande do Norte - Brazil
nova cruz,-6.46959348,-35.4399921,Brazil,Rio Grande do Norte,0,nova cruz - Rio Grande do Norte - Brazil
caico,-6.45961993,-37.1000199,Brazil,Rio Grande do Norte,0,caico - Rio Grande do Norte - Brazil
acu,-5.57962197,-36.9100574,Brazil,Rio Grande do Norte,0,acu - Rio Grande do Norte - Brazil
mossoro,-5.19003334,-37.3400053,Brazil,Rio Grande do Norte,0,mossoro - Rio Grande do Norte - Brazil
natal,-5.78002317,-35.2400043,Brazil,Rio Grande do Norte,0,natal - Rio Grande do Norte - Brazil
santana do livramento,-30.8800414,-55.5300061,Brazil,Rio Grande do Sul,0,santana do livramento - Rio Grande do Sul - Brazil
canoas,-29.9199967,-51.1799874,Brazil,Rio Grande do Sul,0,canoas - Rio Grande do Sul - Brazil
quarai,-30.3800203,-56.4599493,Brazil,Rio Grande do Sul,0,quarai - Rio Grande do Sul - Brazil
santa vitoria do palmar,-33.5200353,-53.3699829,Brazil,Rio Grande do Sul,0,santa vitoria do palmar - Rio Grande do Sul - Brazil
sao lourenco do sul,-31.3699857,-51.9800161,Brazil,Rio Grande do Sul,0,sao lourenco do sul - Rio Grande do Sul - Brazil
canela,-29.3600309,-50.81001,Brazil,Rio Grande do Sul,0,canela - Rio Grande do Sul - Brazil
sao gabriel,-30.3200239,-54.3200283,Brazil,Rio Grande do Sul,0,sao gabriel - Rio Grande do Sul - Brazil
rosario do sul,-30.2500024,-54.9200175,Brazil,Rio Grande do Sul,0,rosario do sul - Rio Grande do Sul - Brazil
cachoeira do sul,-30.0299641,-52.9099851,Brazil,Rio Grande do Sul,0,cachoeira do sul - Rio Grande do Sul - Brazil
osorio,-29.8799991,-50.2699912,Brazil,Rio Grande do Sul,0,osorio - Rio Grande do Sul - Brazil
santa cruz do sul,-29.7100353,-52.4400397,Brazil,Rio Grande do Sul,0,santa cruz do sul - Rio Grande do Sul - Brazil
sao luiz gonzaga,-28.4100113,-54.9599892,Brazil,Rio Grande do Sul,0,sao luiz gonzaga - Rio Grande do Sul - Brazil
santo angelo,-28.3000439,-54.2800307,Brazil,Rio Grande do Sul,0,santo angelo - Rio Grande do Sul - Brazil
carazinho,-28.2900187,-52.8000435,Brazil,Rio Grande do Sul,0,carazinho - Rio Grande do Sul - Brazil
erechim,-27.6300073,-52.2699984,Brazil,Rio Grande do Sul,0,erechim - Rio Grande do Sul - Brazil
uruguaiana,-29.7696183,-57.0899884,Brazil,Rio Grande do Sul,0,uruguaiana - Rio Grande do Sul - Brazil
sao borja,-28.6596085,-56.0099768,Brazil,Rio Grande do Sul,0,sao borja - Rio Grande do Sul - Brazil
novo hamburgo,-29.7096219,-51.1399898,Brazil,Rio Grande do Sul,0,novo hamburgo - Rio Grande do Sul - Brazil
rio grande,-32.0494791,-52.1200075,Brazil,Rio Grande do Sul,0,rio grande - Rio Grande do Sul - Brazil
camaqua,-30.8396305,-51.8100006,Brazil,Rio Grande do Sul,0,camaqua - Rio Grande do Sul - Brazil
bento goncalves,-29.1694999,-51.5199666,Brazil,Rio Grande do Sul,0,bento goncalves - Rio Grande do Sul - Brazil
vacaria,-28.4996183,-50.940002,Brazil,Rio Grande do Sul,0,vacaria - Rio Grande do Sul - Brazil
ijui,-28.3895475,-53.9199493,Brazil,Rio Grande do Sul,0,ijui - Rio Grande do Sul - Brazil
passo fundo,-28.2500211,-52.4199892,Brazil,Rio Grande do Sul,0,passo fundo - Rio Grande do Sul - Brazil
jaguarao,-32.5600423,-53.3699829,Brazil,Rio Grande do Sul,0,jaguarao - Rio Grande do Sul - Brazil
bage,-31.3200146,-54.1000159,Brazil,Rio Grande do Sul,0,bage - Rio Grande do Sul - Brazil
pelotas,-31.7500142,-52.3300205,Brazil,Rio Grande do Sul,0,pelotas - Rio Grande do Sul - Brazil
caxias do sul,-29.1799902,-51.1700397,Brazil,Rio Grande do Sul,0,caxias do sul - Rio Grande do Sul - Brazil
porto alegre,-30.0500146,-51.200012,Brazil,Rio Grande do Sul,0,porto alegre - Rio Grande do Sul - Brazil
pimenta bueno,-11.6400272,-61.2099953,Brazil,Rond?nia,0,pimenta bueno - Rond?nia - Brazil
rolim de moura,-11.7302026,-61.7806323,Brazil,Rond?nia,0,rolim de moura - Rond?nia - Brazil
ariquemes,-9.93961423,-63.0799845,Brazil,Rond?nia,0,ariquemes - Rond?nia - Brazil
abuna,-9.69539142,-65.3597162,Brazil,Rond?nia,0,abuna - Rond?nia - Brazil
guajara-miram,-10.8000268,-65.3499493,Brazil,Rond?nia,0,guajara-miram - Rond?nia - Brazil
principe da beira,-12.4166723,-64.4166471,Brazil,Rond?nia,0,principe da beira - Rond?nia - Brazil
porto velho,-8.75002276,-63.900012,Brazil,Rond?nia,0,porto velho - Rond?nia - Brazil
vilhena,-12.7166023,-60.1165995,Brazil,Rond?nia,0,vilhena - Rond?nia - Brazil
ji-parana,-10.8333064,-61.9670034,Brazil,Rond?nia,0,ji-parana - Rond?nia - Brazil
caracarai,1.816231505,-61.1276748,Brazil,Roraima,0,caracarai - Roraima - Brazil
boa vista,2.816092955,-60.6659975,Brazil,Roraima,0,boa vista - Roraima - Brazil
concordia,-27.2300317,-52.030013,Brazil,Santa Catarina,0,concordia - Santa Catarina - Brazil
blumenau,-26.9200248,-49.0899858,Brazil,Santa Catarina,0,blumenau - Santa Catarina - Brazil
brusque,-27.1299861,-48.9300214,Brazil,Santa Catarina,0,brusque - Santa Catarina - Brazil
ararangua,-28.9400048,-49.4999866,Brazil,Santa Catarina,0,ararangua - Santa Catarina - Brazil
jaragua do sul,-26.4799999,-49.0999851,Brazil,Santa Catarina,0,jaragua do sul - Santa Catarina - Brazil
tubarao,-28.4800329,-49.0200159,Brazil,Santa Catarina,0,tubarao - Santa Catarina - Brazil
laguna,-28.4800329,-48.7799788,Brazil,Santa Catarina,0,laguna - Santa Catarina - Brazil
joacaba,-27.1700353,-51.4999679,Brazil,Santa Catarina,0,joacaba - Santa Catarina - Brazil
cacador,-26.7700081,-51.020023,Brazil,Santa Catarina,0,cacador - Santa Catarina - Brazil
canoinhas,-26.1799666,-50.4000092,Brazil,Santa Catarina,0,canoinhas - Santa Catarina - Brazil
sao francisco do sul,-26.2396012,-48.5999898,Brazil,Santa Catarina,0,sao francisco do sul - Santa Catarina - Brazil
porto uniao,-26.2396012,-51.0799676,Brazil,Santa Catarina,0,porto uniao - Santa Catarina - Brazil
itajai,-26.8996126,-48.6800108,Brazil,Santa Catarina,0,itajai - Santa Catarina - Brazil
imbituba,-28.2296089,-48.660012,Brazil,Santa Catarina,0,imbituba - Santa Catarina - Brazil
lajes,-27.8095829,-50.3099888,Brazil,Santa Catarina,0,lajes - Santa Catarina - Brazil
xapeco,-27.1000138,-52.6400275,Brazil,Santa Catarina,0,xapeco - Santa Catarina - Brazil
joinville,-26.319958,-48.8399493,Brazil,Santa Catarina,0,joinville - Santa Catarina - Brazil
criciuma,-28.6800207,-49.3899674,Brazil,Santa Catarina,0,criciuma - Santa Catarina - Brazil
florianopolis,-27.5799845,-48.5200205,Brazil,Santa Catarina,0,florianopolis - Santa Catarina - Brazil
santo andre,-23.652834,-46.5278166,Brazil,S?o Paulo,0,santo andre - S?o Paulo - Brazil
pindamonhangaba,-22.9199588,-45.4700258,Brazil,S?o Paulo,0,pindamonhangaba - S?o Paulo - Brazil
rio claro,-22.4099641,-47.5600275,Brazil,S?o Paulo,0,rio claro - S?o Paulo - Brazil
ourinhos,-22.9700333,-49.8699898,Brazil,S?o Paulo,0,ourinhos - S?o Paulo - Brazil
itanhaem,-24.1799853,-46.8000222,Brazil,S?o Paulo,0,itanhaem - S?o Paulo - Brazil
jaboticabal,-21.2500349,-48.3299805,Brazil,S?o Paulo,0,jaboticabal - S?o Paulo - Brazil
braganca paulista,-22.9500345,-46.5499858,Brazil,S?o Paulo,0,braganca paulista - S?o Paulo - Brazil
jundiai,-23.1999934,-46.8799915,Brazil,S?o Paulo,0,jundiai - S?o Paulo - Brazil
sao jose dos campos,-23.1999934,-45.8799491,Brazil,S?o Paulo,0,sao jose dos campos - S?o Paulo - Brazil
guaratingueta,-22.8199649,-45.1899912,Brazil,S?o Paulo,0,guaratingueta - S?o Paulo - Brazil
pirassununga,-21.9900414,-47.4299837,Brazil,S?o Paulo,0,pirassununga - S?o Paulo - Brazil
americana,-22.7499434,-47.3299898,Brazil,S?o Paulo,0,americana - S?o Paulo - Brazil
piracicaba,-22.7099975,-47.6399967,Brazil,S?o Paulo,0,piracicaba - S?o Paulo - Brazil
sao joao da boa vista,-21.9800162,-46.7899969,Brazil,S?o Paulo,0,sao joao da boa vista - S?o Paulo - Brazil
sao carlos,-22.0200138,-47.8899815,Brazil,S?o Paulo,0,sao carlos - S?o Paulo - Brazil
tupa,-21.9299934,-50.5199502,Brazil,S?o Paulo,0,tupa - S?o Paulo - Brazil
penapolis,-21.4100252,-50.0800028,Brazil,S?o Paulo,0,penapolis - S?o Paulo - Brazil
presidente prudente,-22.1200077,-51.3900004,Brazil,S?o Paulo,0,presidente prudente - S?o Paulo - Brazil
registro,-24.4900439,-47.8399845,Brazil,S?o Paulo,0,registro - S?o Paulo - Brazil
tatui,-23.3500101,-47.8600092,Brazil,S?o Paulo,0,tatui - S?o Paulo - Brazil
avare,-23.1100248,-48.9300214,Brazil,S?o Paulo,0,avare - S?o Paulo - Brazil
garca,-22.2200016,-49.6599768,Brazil,S?o Paulo,0,garca - S?o Paulo - Brazil
catanduva,-21.1400158,-48.9799666,Brazil,S?o Paulo,0,catanduva - S?o Paulo - Brazil
batatais,-20.8900052,-47.5899998,Brazil,S?o Paulo,0,batatais - S?o Paulo - Brazil
barretos,-20.550026,-48.5800169,Brazil,S?o Paulo,0,barretos - S?o Paulo - Brazil
marilia,-22.210028,-49.9500108,Brazil,S?o Paulo,0,marilia - S?o Paulo - Brazil
itu,-23.2600414,-47.3000175,Brazil,S?o Paulo,0,itu - S?o Paulo - Brazil
itapetininga,-23.5899955,-48.0399982,Brazil,S?o Paulo,0,itapetininga - S?o Paulo - Brazil
sao jose do rio preto,-20.7996231,-49.3899674,Brazil,S?o Paulo,0,sao jose do rio preto - S?o Paulo - Brazil
limeira,-22.5495422,-47.4000114,Brazil,S?o Paulo,0,limeira - S?o Paulo - Brazil
taubate,-23.0195393,-45.5599945,Brazil,S?o Paulo,0,taubate - S?o Paulo - Brazil
jau,-22.2896097,-48.5700175,Brazil,S?o Paulo,0,jau - S?o Paulo - Brazil
assis,-22.659613,-50.4199821,Brazil,S?o Paulo,0,assis - S?o Paulo - Brazil
itapeva,-23.9795841,-48.8800244,Brazil,S?o Paulo,0,itapeva - S?o Paulo - Brazil
botucatu,-22.8795995,-48.449999,Brazil,S?o Paulo,0,botucatu - S?o Paulo - Brazil
novo horizonte,-21.4595829,-49.2200037,Brazil,S?o Paulo,0,novo horizonte - S?o Paulo - Brazil
andradina,-20.9095906,-51.3799493,Brazil,S?o Paulo,0,andradina - S?o Paulo - Brazil
fernandopolis,-20.2696297,-50.2600435,Brazil,S?o Paulo,0,fernandopolis - S?o Paulo - Brazil
aracatuba,-21.2099857,-50.4500061,Brazil,S?o Paulo,0,aracatuba - S?o Paulo - Brazil
santos,-23.9537239,-46.3329426,Brazil,S?o Paulo,0,santos - S?o Paulo - Brazil
bauru,-22.3300207,-49.0800122,Brazil,S?o Paulo,0,bauru - S?o Paulo - Brazil
iguape,-24.720004,-47.5699493,Brazil,S?o Paulo,0,iguape - S?o Paulo - Brazil
franca,-20.5300272,-47.390012,Brazil,S?o Paulo,0,franca - S?o Paulo - Brazil
campinas,-22.9000117,-47.1000297,Brazil,S?o Paulo,0,campinas - S?o Paulo - Brazil
sorocaba,-23.4900016,-47.4699813,Brazil,S?o Paulo,0,sorocaba - S?o Paulo - Brazil
ribeirao preto,-21.1700398,-47.8299851,Brazil,S?o Paulo,0,ribeirao preto - S?o Paulo - Brazil
sao paulo,-23.5586795,-46.6250199,Brazil,S?o Paulo,0,sao paulo - S?o Paulo - Brazil
estancia,-11.2696105,-37.4500244,Brazil,Sergipe,0,estancia - Sergipe - Brazil
aracaju,-10.9000207,-37.119967,Brazil,Sergipe,0,aracaju - Sergipe - Brazil
tocantinopolis,-6.3195768,-47.4199843,Brazil,Tocantins,0,tocantinopolis - Tocantins - Brazil
gurupi,-11.7196089,-49.0599876,Brazil,Tocantins,0,gurupi - Tocantins - Brazil
porto nacional,-10.7000329,-48.4199491,Brazil,Tocantins,0,porto nacional - Tocantins - Brazil
araguaina,-7.19001462,-48.2100136,Brazil,Tocantins,0,araguaina - Tocantins - Brazil
palmas,-10.2377355,-48.2877867,Brazil,Tocantins,0,palmas - Tocantins - Brazil
alvorada,-12.4700024,-49.0820017,Brazil,Tocantins,0,alvorada - Tocantins - Brazil
bandar seri begawan,4.883331115,114.9332841,Brunei,Brunei and Muara,0,bandar seri begawan - Brunei and Muara - Brunei
burgas,42.51460004,27.47464311,Bulgaria,Burgas,2,burgas - Burgas - Bulgaria
dobrich,43.58505149,27.83999548,Bulgaria,Dobrich,2,dobrich - Dobrich - Bulgaria
sofia,42.68334943,23.31665401,Bulgaria,Grad Sofiya,2,sofia - Grad Sofiya - Bulgaria
khaskovo,41.94378216,25.5632869,Bulgaria,Haskovo,2,khaskovo - Haskovo - Bulgaria
kyustendil,42.28427818,22.6911108,Bulgaria,Kyustendil,2,kyustendil - Kyustendil - Bulgaria
lovec,43.13799911,24.71900459,Bulgaria,Lovech,2,lovec - Lovech - Bulgaria
pernik,42.60999473,23.02271846,Bulgaria,Pernik,2,pernik - Pernik - Bulgaria
pleven,43.42376935,24.61337073,Bulgaria,Pleven,2,pleven - Pleven - Bulgaria
plovdiv,42.15397605,24.7539823,Bulgaria,Plovdiv,2,plovdiv - Plovdiv - Bulgaria
razgrad,43.53399903,26.53599663,Bulgaria,Razgrad,2,razgrad - Razgrad - Bulgaria
ruse,43.85369143,25.97333939,Bulgaria,Ruse,2,ruse - Ruse - Bulgaria
shumen,43.27000612,26.92935339,Bulgaria,Shumen,2,shumen - Shumen - Bulgaria
sliven,42.67937034,26.33001013,Bulgaria,Sliven,2,sliven - Sliven - Bulgaria
stara zagora,42.42313275,25.6227148,Bulgaria,Stara Zagora,2,stara zagora - Stara Zagora - Bulgaria
varna,43.21564252,27.89528926,Bulgaria,Varna,2,varna - Varna - Bulgaria
turnovo,43.08624473,25.65552934,Bulgaria,Veliko Tarnovo,2,turnovo - Veliko Tarnovo - Bulgaria
vratsa,43.20998395,23.56253048,Bulgaria,Vratsa,2,vratsa - Vratsa - Bulgaria
solenzo,12.1833333,-4.0833333,Burkina Faso,Banwa,0,solenzo - Banwa - Burkina Faso
kombissiri,12.06399605,-1.33399754,Burkina Faso,Baz?ga,0,kombissiri - Baz?ga - Burkina Faso
diebougou,10.95200113,-3.24800041,Burkina Faso,Bougouriba,0,diebougou - Bougouriba - Burkina Faso
tenkodogo,11.78040367,-0.36970381,Burkina Faso,Boulgou,0,tenkodogo - Boulgou - Burkina Faso
koudougou,12.25047833,-2.36999515,Burkina Faso,"Boulkiemd?
Zorgo",0,"koudougou - Boulkiemd?
Zorgo - Burkina Faso"
bogande,12.96900003,-0.1379965,Burkina Faso,Gnagna,0,bogande - Gnagna - Burkina Faso
fada ngourma,12.05499605,0.360999451,Burkina Faso,Gourma,0,fada ngourma - Gourma - Burkina Faso
bobo dioulasso,11.1799752,-4.28998132,Burkina Faso,Houet,0,bobo dioulasso - Houet - Burkina Faso
ouagadougou,12.37031598,-1.52472375,Burkina Faso,Kadiogo,0,ouagadougou - Kadiogo - Burkina Faso
orodara,10.97399705,-4.90799645,Burkina Faso,K?n?dougou,0,orodara - K?n?dougou - Burkina Faso
banfora,10.63044802,-4.76000431,Burkina Faso,"Komo?
Nouna",0,"banfora - Komo?
Nouna - Burkina Faso"
koupela,12.17700004,-0.35600351,Burkina Faso,Kouritenga,0,koupela - Kouritenga - Burkina Faso
dedougou,12.455001,-3.46400043,Burkina Faso,Mou Houn,0,dedougou - Mou Houn - Burkina Faso
po,11.16900002,-1.13499847,Burkina Faso,Nahouri,0,po - Nahouri - Burkina Faso
boulsa,12.65699714,-0.56899753,Burkina Faso,Namentenga,0,boulsa - Namentenga - Burkina Faso
ziniare,12.57699605,-1.29300244,Burkina Faso,Oubritenga,0,ziniare - Oubritenga - Burkina Faso
gorom gorom,14.45000398,-0.23329754,Burkina Faso,Oudalan,0,gorom gorom - Oudalan - Burkina Faso
yako,12.95399712,-2.2629955,Burkina Faso,"Passor?
Gaoua",0,"yako - Passor?
Gaoua - Burkina Faso"
reo,12.33349214,-2.46694451,Burkina Faso,"Sangui?
Kaya",0,"reo - Sangui?
Kaya - Burkina Faso"
dori,14.0339971,-0.02799851,Burkina Faso,S?no,0,dori - S?no - Burkina Faso
leo,11.09400299,-2.09799852,Burkina Faso,Sissili,0,leo - Sissili - Burkina Faso
djibo,14.09900404,-1.62700142,Burkina Faso,Soum,0,djibo - Soum - Burkina Faso
tougan,13.06899899,-3.0699984,Burkina Faso,Sourou,0,tougan - Sourou - Burkina Faso
diapaga,12.07700108,1.796004571,Burkina Faso,Tapoa,0,diapaga - Tapoa - Burkina Faso
sebba,13.4364122,0.530443,Burkina Faso,Yagha,0,sebba - Yagha - Burkina Faso
ouahigouya,13.5704236,-2.4199921,Burkina Faso,Yatenga,0,ouahigouya - Yatenga - Burkina Faso
sapouy,11.5544444,-1.7736111,Burkina Faso,Ziro,0,sapouy - Ziro - Burkina Faso
manga,11.66200198,-1.0649964,Burkina Faso,Zoundw?ogo,0,manga - Zoundw?ogo - Burkina Faso
bubanza,-3.08330098,29.36670351,Burundi,Bubanza,2,bubanza - Bubanza - Burundi
bujumbura,-3.37608722,29.36000606,Burundi,Bujumbura Mairie,2,bujumbura - Bujumbura Mairie - Burundi
bururi,-3.95072914,29.61657955,Burundi,Bururi,2,bururi - Bururi - Burundi
cankuzo,-3.16670392,30.51669662,Burundi,Cankuzo,2,cankuzo - Cankuzo - Burundi
karusi,-3.09999596,30.16299648,Burundi,Karuzi,2,karusi - Karuzi - Burundi
kayanza,-2.89999787,29.5667016,Burundi,Kayanza,2,kayanza - Kayanza - Burundi
kirundo,-2.5847222,30.0972222,Burundi,Kirundo,2,kirundo - Kirundo - Burundi
makamba,-4.1333039,29.79999964,Burundi,Makamba,2,makamba - Makamba - Burundi
muramvya,-3.260997,29.61199862,Burundi,Muramvya,2,muramvya - Muramvya - Burundi
gitega,-3.42600665,29.84359411,Burundi,Muramvya,2,gitega - Muramvya - Burundi
muyinga,-2.85234657,30.31726029,Burundi,Muyinga,2,muyinga - Muyinga - Burundi
ngozi,-2.91200388,29.82500157,Burundi,Ngozi,2,ngozi - Ngozi - Burundi
rutana,-3.93100195,29.99300455,Burundi,Rutana,2,rutana - Rutana - Burundi
ruyigi,-3.4810019,30.2439966,Burundi,Ruyigi,2,ruyigi - Ruyigi - Burundi
sisophon,13.58375612,102.9833158,Cambodia,B?nt?ay M?anchey,7,sisophon - B?nt?ay M?anchey - Cambodia
battambang,13.10001304,103.2000468,Cambodia,Batd?mb?ng,7,battambang - Batd?mb?ng - Cambodia
kampong cham,12.00044191,105.4500386,Cambodia,K?mp?ng Cham,7,kampong cham - K?mp?ng Cham - Cambodia
kompong chhnang,12.25047833,104.6666239,Cambodia,K?mp?ng Chhnang,7,kompong chhnang - K?mp?ng Chhnang - Cambodia
kampong spoe,11.4519961,104.5189986,Cambodia,K?mp?ng Sp?,7,kampong spoe - K?mp?ng Sp? - Cambodia
kampong thum,12.71199613,104.8889977,Cambodia,K?mp?ng Thum,7,kampong thum - K?mp?ng Thum - Cambodia
kampot,10.61708966,104.1833459,Cambodia,"K?mp?t
Krong Koh Kong",7,"kampot - K?mp?t
Krong Koh Kong - Cambodia"
kracheh,12.46899612,106.0239967,Cambodia,Kr?ch?h,7,kracheh - Kr?ch?h - Cambodia
senmonorom,12.44999711,107.1999997,Cambodia,M?nd?l Kiri,7,senmonorom - M?nd?l Kiri - Cambodia
phnom penh,11.55003013,104.9166345,Cambodia,Phnom Penh,7,phnom penh - Phnom Penh - Cambodia
pursat,12.53369102,103.9166955,Cambodia,Pouthisat,7,pursat - Pouthisat - Cambodia
phnum tbeng meanchey,13.816701,104.9667037,Cambodia,Preah Vih?ar,7,phnum tbeng meanchey - Preah Vih?ar - Cambodia
prey veng,11.48399998,105.3240036,Cambodia,Prey V?ng,7,prey veng - Prey V?ng - Cambodia
lumphat,13.50700214,106.9810026,Cambodia,R?t?n?kiri,7,lumphat - R?t?n?kiri - Cambodia
siem reap,13.36663759,103.8500329,Cambodia,Siemr?ab,7,siem reap - Siemr?ab - Cambodia
stoeng treng,13.52300408,105.9740016,Cambodia,St?ng Tr?ng,7,stoeng treng - St?ng Tr?ng - Cambodia
svay rieng,11.0799991,105.8010036,Cambodia,Svay Rieng,7,svay rieng - Svay Rieng - Cambodia
takeo,10.98375978,104.7833093,Cambodia,Tak?v,7,takeo - Tak?v - Cambodia
meiganga,6.520492166,14.28996985,Cameroon,Adamaoua,1,meiganga - Adamaoua - Cameroon
ngaoundere,7.320365823,13.57998734,Cameroon,Adamaoua,1,ngaoundere - Adamaoua - Cameroon
tibati,6.46698122,12.63332678,Cameroon,Adamaoua,1,tibati - Adamaoua - Cameroon
kontcha,7.967018859,12.23329952,Cameroon,Adamaoua,1,kontcha - Adamaoua - Cameroon
bafia,4.750393493,11.23000159,Cameroon,Centre,1,bafia - Centre - Cameroon
mbalmayo,3.520391051,11.50001094,Cameroon,Centre,1,mbalmayo - Centre - Cameroon
eseka,3.650408955,10.76661902,Cameroon,Centre,1,eseka - Centre - Cameroon
yaounde,3.866700662,11.51665076,Cameroon,Centre,1,yaounde - Centre - Cameroon
bertoua,4.580429707,13.67998124,Cameroon,Est,1,bertoua - Est - Cameroon
abong mbang,3.983696105,13.18331905,Cameroon,Est,1,abong mbang - Est - Cameroon
batouri,4.433694477,14.366606,Cameroon,Est,1,batouri - Est - Cameroon
belabo,4.933689798,13.30000443,Cameroon,Est,1,belabo - Est - Cameroon
maroua,10.59556643,14.32469641,Cameroon,Extr?me-Nord,1,maroua - Extr?me-Nord - Cameroon
